"ï..OrganisationID","OrganisationCode","OrganisationType","SubType","Sector","OrganisationStatus","IsPimsManaged","OrganisationName","Address1","Address2","Address3","City","County","Postcode","Latitude","Longitude","ParentODSCode","ParentName","Phone","Email","Website","Fax","northing","easting"
17970,"NDA07","Hospital","Hospital","Independent Sector","Visible",TRUE,"Walton Community Hospital - Virgin Care Services Ltd","","Rodney Road","","Walton-on-Thames","Surrey","KT12 3LD",51.37999725,-0.406042069,"NDA","Virgin Care Services Ltd","01932 414205","","","01932 253674",165810.4688,510917.5313
17981,"NDA18","Hospital","Hospital","Independent Sector","Visible",TRUE,"Woking Community Hospital (Virgin Care)","","Heathside Road","","Woking","Surrey","GU22 7HS",51.31513214,-0.556289494,"NDA","Virgin Care Services Ltd","01483 715911","","","",158381.3438,500604.8438
18102,"NLT02","Hospital","Hospital","NHS Sector","Visible",TRUE,"North Somerset Community Hospital","North Somerset Community Hospital","Old Street","","Clevedon","Avon","BS21 6BS",51.43719482,-2.847192764,"NLT","North Somerset Community Partnership Community Interest Company","01275 872212","","http://www.nscphealth.co.uk","",171305.7813,341119.375
18138,"NMP01","Hospital","Hospital","Independent Sector","Visible",FALSE,"Bridgewater Hospital","120 Princess Road","","","Manchester","Greater Manchester","M15 5AT",53.4597435,-2.245468855,"NMP","Bridgewater Hospital (Manchester) Ltd","0161 2270000","","www.bridgewaterhospital.com","",395944.5625,383703.5938
18142,"NMV01","Hospital","Hospital","Independent Sector","Visible",TRUE,"Kneesworth House","Old North Road","Bassingbourn","","Royston","","SG8 5JP",52.07812119,-0.030604055,"NMV","Partnerships In Care Ltd","01763 255 700","reception_kneesworthhouse@partnershipsincare.co.uk","www.partnershipsincare.co.uk","",244071.7031,534945.1875
18143,"NMV02","Hospital","Hospital","Independent Sector","Visible",TRUE,"Stockton Hall Hospital","Stockton Hall","The Village","Stockton On The Forest","York","North Yorkshire","YO32 9UN",53.99539185,-1.002552867,"NMV","Partnerships In Care Ltd","01904 400 500","info@priorygroup.com","https://www.priorygroup.com/stockton-hall","",455965.4375,465382.0938
18271,"NQ106","Hospital","Hospital","Independent Sector","Visible",TRUE,"Fryatt Hospital, Harwich","419 Main Road","","","Harwich","Essex","CO12 4EX",51.9346962,1.261444092,"NQ1","Anglian Community Enterprise Community Interest Company (ACE CIC)","01255 201200","","","",231316.8281,624175.0625
18272,"NQ108","Hospital","Hospital","Independent Sector","Visible",TRUE,"Clacton Hospital","","Tower Road","","Clacton","Essex","CO15 1LH",51.78607941,1.148187518,"NQ1","Anglian Community Enterprise Community Interest Company (ACE CIC)","01255 201717","","https://www.esneft.nhs.uk/your-visit/our-wards/clacton-hospital/","01206 286710",214451.8906,617107
18289,"NQ901","Hospital","Hospital","Independent Sector","Visible",FALSE,"Lakeside Hospital","The Lane","Wyboston","","Bedford","Bedfordshire","MK44 3AS",52.19832611,-0.31028071,"NQ9","Brookdale Healthcare Ltd (T/A Brookdale Care)","","","","",256956.1094,515471.5625
18305,"NQM01","Hospital","Hospital","Independent Sector","Visible",TRUE,"Orthopaedics and Spine Specialist Hospital","1 Stirling Way","Bretton","","Peterborough","Cambridgeshire","PE3 8YA",52.60494232,-0.283021808,"NQM","Orthopaedics and Spine Specialist Hospital","01733 333156","info@orthospine.co.uk","","01733 373050",302218.875,516260.2813
18314,"NR510","Hospital","Hospital","Independent Sector","Visible",TRUE,"Lee Mill Hospital","","Beech Road","Ivybridge","Plymouth","Devon","PL21 9HL",50.38948441,-3.959660053,"NR5","Livewell Southwest","01752 314800","","","01752 314804",56303.21875,260713.1719
18317,"NR527","Hospital","Hospital","Independent Sector","Visible",TRUE,"Mount Gould Hospital","","Mount Gould Road","","Plymouth","","PL4 7QD",50.37840271,-4.112740517,"NR5","Livewell Southwest","01752 268011","","http://www.plymouthcommunityhealthcare.co.uk","",55369.28125,249798.5313
18351,"NT202","Hospital","Hospital","Independent Sector","Visible",TRUE,"Nuffield Health, Bournemouth Hospital","","67 Landsdowne Road","","Bournemouth","Dorset","BH1 1RW",50.73041916,-1.870926738,"NT2","Nuffield Health","0800 015 5020","chooseandbook@nuffieldhealth.com","http://www.nuffieldhealth.com/individuals/centres/b/bournemouth/","0845 280 3251",92382.85938,409108.5313
18352,"NT204","Hospital","Hospital","Independent Sector","Visible",TRUE,"Nuffield Health, Brentwood Hospital","","Shenfield Road","","Brentwood","Essex","CM15 8EH",51.62333298,0.312835306,"NT2","Nuffield Health","0800 015 5020","nuffieldhealth.ereferrals@nhs.net","http://www.nuffieldhealth.com/brentwoodhospital","0845 280 3251",194198.25,560081.25
18353,"NT205","Hospital","Hospital","Independent Sector","Visible",TRUE,"Nuffield Health, Brighton Hospital","","Warren Road","Woodingdean","Brighton","","BN2 6DX",50.83451843,-0.081910513,"NT2","Nuffield Health","0800 015 5020","nuffieldhealth.ereferrals@nhs.net","http://www.nuffieldhealth.com/brightonhospital","0845 280 3251",105702.6875,535051.75
18354,"NT206","Hospital","Hospital","Independent Sector","Visible",TRUE,"Nuffield Health, Bristol Hospital (Chesterfield)","3 Clifton Hill","Clifton","","Bristol","Avon","BS8 1BN",51.45360947,-2.61598444,"NT2","Nuffield Health","0800 015 5020","nuffieldhealth.ereferrals@nhs.net","http://www.nuffieldhealth.com/hospitals/bristol","0845 280 3251",172970.6563,357203.7188
18356,"NT209","Hospital","Hospital","Independent Sector","Visible",TRUE,"Nuffield Health, Cambridge Hospital","Nuffield Health Cambridge Hospital","4 Trumpington Road","","Cambridge","Cambridgeshire","CB2 8AF",52.19035339,0.123558596,"NT2","Nuffield Health","0800 015 5020","nuffieldhealth.ereferrals@nhs.net","http://www.nuffieldhealth.com/cambridgehospital","",256849.3125,545142.125
18357,"NT210","Hospital","Hospital","Independent Sector","Visible",TRUE,"Nuffield Health, The Grosvenor Hospital, Chester","Nuffield Health Chester Hospital, The Grosvenor","Wrexham Road","","Chester","Cheshire","CH4 7QP",53.17634583,-2.895246744,"NT2","Nuffield Health","0800 015 5020","nuffieldhealth.ereferrals@nhs.net","http://www.nuffieldhealth.com/thegrosvenorhospitalchester","0845 280 3251",364766.0938,340171.1875
18358,"NT211","Hospital","Hospital","Independent Sector","Visible",TRUE,"Nuffield Health, Cheltenham Hospital","","Hatherley Lane","","Cheltenham","Gloucestershire","GL51 6SY",51.89192963,-2.129905462,"NT2","Nuffield Health","0800 015 5020","nuffieldhealth.ereferrals@nhs.net","http://www.nuffieldhealth.com/cheltenhamhospital","0845 280 3251",221542.9688,391061.3125
18359,"NT212","Hospital","Hospital","Independent Sector","Visible",TRUE,"Nuffield Health, Chichester Hospital","","78 Broyle Road","","Chichester","","PO19 6WB",50.8479805,-0.780013144,"NT2","Nuffield Health","0800 015 5020","nuffieldhealth.ereferrals@nhs.net","http://www.nuffieldhealth.com/chichesterhospital","0845 280 3251",106155.6172,485875.875
18360,"NT213","Hospital","Hospital","Independent Sector","Visible",TRUE,"Nuffield Health, Derby Hospital","","Rykneld Road","Littleover","Derby","Derbyshire","DE23 4SN",52.89355087,-1.530155182,"NT2","Nuffield Health","0800 015 5020","nuffieldhealth.ereferrals@nhs.net","http://www.nuffieldhealth.com/derbyhospital","0845 280 3251",333039.25,431605.8125
18361,"NT214","Hospital","Hospital","Independent Sector","Visible",TRUE,"Nuffield Health, Wessex Hospital","Nuffield Health Wessex Hospital","Winchester Road","Chandlers Ford","Eastleigh","Hampshire","SO53 2DW",50.99697495,-1.35935092,"NT2","Nuffield Health","0800 015 5020","nuffieldhealth.ereferrals@nhs.net","http://www.nuffieldhealth.com/hospitals/wessex","0845 280 3251",122208.9844,444952.5
18362,"NT215","Hospital","Hospital","Independent Sector","Visible",TRUE,"Nuffield Health, Exeter Hospital","Nuffield Health Exeter Hospital","Wonford Road","","Exeter","Devon","EX2 4UG",50.71631622,-3.511271715,"NT2","Nuffield Health","0800 015 5020","nuffieldhealth.ereferrals@nhs.net","http://www.nuffieldhealth.com/exeterhospital","",91895.91406,293322
18363,"NT216","Hospital","Hospital","Independent Sector","Visible",TRUE,"Nuffield Health, Guildford Hospital","","Stirling Road","","Guildford","Surrey","GU2 7RF",51.24165344,-0.612543583,"NT2","Nuffield Health","01483 555800","","http://www.nuffieldhealth.com/guildfordhospital","",150135.4531,496839.3438
18365,"NT218","Hospital","Hospital","Independent Sector","Visible",TRUE,"Nuffield Health, Haywards Heath Hospital","","Burrell Road","","Haywards Heath","","RH16 1UD",51.00840378,-0.106121421,"NT2","Nuffield Health","0800 015 5020","nuffieldhealth.ereferrals@nhs.net","http://www.nuffieldhealth.com/haywards-heathhospital","0845 280 3251",124991.3203,532850.9375
18366,"NT219","Hospital","Hospital","Independent Sector","Visible",TRUE,"Nuffield Health, Hereford Hospital","","Venns Lane","","Hereford","Herefordshire","HR1 1DF",52.06393814,-2.69995451,"NT2","Nuffield Health","01432 355131","nuffieldhealth.ereferrals@nhs.net","http://www.nuffieldhealth.com/herefordhospital","01432 344061",240895.6875,352021.125
18367,"NT222","Hospital","Hospital","Independent Sector","Visible",TRUE,"Nuffield Health, Ipswich Hospital","","Foxhall Road","","Ipswich","Suffolk","IP4 5SW",52.04751968,1.228945851,"NT2","Nuffield Health","0800 015 5020","chooseandbook@nuffieldhealth.com","http://www.nuffieldhealth.com/ipswichhospital","0845 280 3251",243759.7656,621384.3125
18368,"NT224","Hospital","Hospital","Independent Sector","Visible",TRUE,"Nuffield Health, Warwickshire Hospital","","The Chase","Old Milverton Lane","Leamington Spa","Warwickshire","CV32 6RW",52.30849838,-1.543865085,"NT2","Nuffield Health","0800 015 5020","nuffieldhealth.ereferrals@nhs.net","http://www.nuffieldhealth.com/warwickshirehospital","0845 280 3251",267961.6563,431095.125
18369,"NT225","Hospital","Hospital","Independent Sector","Visible",TRUE,"Nuffield Health, Leeds Hospital","Nuffield Health Leeds Hospital","2 Leighton Street","","Leeds","West Yorkshire","LS1 3EB",53.80065918,-1.554257393,"NT2","Nuffield Health","0113 350 3158","nuffieldhealth.ereferrals@nhs.net","https://www.nuffieldhealth.com/hospitals/leeds","0113 3882187",433933.4063,429354.7188
18370,"NT226","Hospital","Hospital","Independent Sector","Visible",TRUE,"Nuffield Health, Leicester Hospital","","Scraptoft Lane","","Leicester","Leicestershire","LE5 1HY",52.64425659,-1.0712955,"NT2","Nuffield Health","0800 015 5020","nuffieldhealth.ereferrals@nhs.net","http://www.nuffieldhealth.com/leicesterhospital","0845 280 3251",305612.25,462830
18371,"NT229","Hospital","Hospital","Independent Sector","Visible",TRUE,"Nuffield Health, Newcastle-upon-Tyne Hospital","","Clayton Road","","Newcastle Upon Tyne","","NE2 1JP",54.98661423,-1.605277061,"NT2","Nuffield Health","0800 015 5020","nuffieldhealth.ereferrals@nhs.net","http://www.nuffieldhealth.com/newcastle-upon-tynehospital","0845 280 3251",565859.4375,425255.75
18372,"NT230","Hospital","Hospital","Independent Sector","Visible",TRUE,"Nuffield Health, North Staffordshire Hospital","","Clayton Road","","Newcastle Under Lyme","Staffordshire","ST5 4DB",52.98740768,-2.223027706,"NT2","Nuffield Health","0800 015 5020","nuffieldhealth.ereferrals@nhs.net","http://www.nuffieldhealth.com/northstaffordshirehospital","0845 280 3251",343398.9375,385029.625
18373,"NT233","Hospital","Hospital","Independent Sector","Visible",TRUE,"Nuffield Health, Plymouth Hospital","","Derriford Road","","Plymouth","Devon","PL6 8BG",50.41867447,-4.114448071,"NT2","Nuffield Health","0800 015 5020","nuffieldhealth.ereferrals@nhs.net","http://www.nuffieldhealth.com/plymouthhospital","0845 280 3251",59849.68359,249804.5
18374,"NT235","Hospital","Hospital","Independent Sector","Visible",TRUE,"Nuffield Health, Shrewsbury Hospital","","Longden Road","","Shrewsbury","Shropshire","SY3 9DP",52.69225693,-2.771440506,"NT2","Nuffield Health","0800 015 5020","nuffieldhealth.ereferrals@nhs.net","http://www.nuffieldhealth.com/shrewsburyhospital","0845 280 3251",310825.5,347866.4063
18375,"NT237","Hospital","Hospital","Independent Sector","Visible",TRUE,"Nuffield Health, Tees Hospital","Nuffield Health Tees Hospital","Junction Road","Norton","Stockton-on-Tees","Cleveland","TS20 1PX",54.59342575,-1.335218549,"NT2","Nuffield Health","0800 015 5020","nuffieldhealth.ereferrals@nhs.net","http://www.nuffieldhealth.com/teeshospital","0845 280 3251",522243.0625,442949.5313
18376,"NT238","Hospital","Hospital","Independent Sector","Visible",TRUE,"Nuffield Health, Taunton Hospital","","Staplegrove Elm","","Taunton","Somerset","TA2 6AN",51.02984619,-3.126897812,"NT2","Nuffield Health","0800 015 5020","","http://www.nuffieldhealth.com/tauntonhospital","0845 280 3251",126272.9297,320985.4063
18377,"NT239","Hospital","Hospital","Independent Sector","Visible",TRUE,"Nuffield Health, Tunbridge Wells Hospital","","Kingswood Road","","Tunbridge Wells","Kent","TN2 4UL",51.13151932,0.278053015,"NT2","Nuffield Health","0800 015 5020","nuffieldhealth.ereferrals@nhs.net","http://www.nuffieldhealth.com/tunbridgewellshospital","0845 280 3251",139441.7813,559373.5625
18378,"NT241","Hospital","Hospital","Independent Sector","Visible",TRUE,"Nuffield Health, Woking Hospital","","Shores Road","","Woking","Surrey","GU21 4BY",51.33221054,-0.561365902,"NT2","Nuffield Health","0800 015 5020","nuffieldhealth.ereferrals@nhs.net","http://www.nuffieldhealth.com/wokinghospital","0845 280 3251",160273.3906,500213.875
18379,"NT242","Hospital","Hospital","Independent Sector","Visible",TRUE,"Nuffield Health, Wolverhampton Hospital","","Wood Road","Tettenhall","Wolverhampton","","WV6 8LE",52.5934639,-2.171522379,"NT2","Nuffield Health","0800 015 5020","nuffieldhealth.ereferrals@nhs.net","http://www.nuffieldhealth.com/hospitals/wolverhampton","0845 280 3251",299571.875,388382.375
18380,"NT244","Hospital","Hospital","Independent Sector","Visible",TRUE,"Nuffield Health, The Manor Hospital, Oxford","","Beech Road","Headington","Oxford","Oxfordshire","OX3 7RP",51.76044464,-1.215518713,"NT2","Nuffield Health","0800 015 5020","nuffieldhealth.ereferrals@nhs.net","http://www.nuffieldhealth.com/themanorhospitaloxford","0845 280 3251",207203.6563,454136.4688
18381,"NT245","Hospital","Hospital","Independent Sector","Visible",TRUE,"Nuffield Health, York Hospital","","Haxby Road","","York","North Yorkshire","YO31 8TA",53.97470093,-1.075559855,"NT2","Nuffield Health","0800 015 5020","nuffieldhealth.ereferrals@nhs.net","http://www.nuffieldhealth.com/yorkhospital","0845 280 3251",453598.75,460626.7188
18385,"NT301","Hospital","Hospital","Independent Sector","Visible",TRUE,"Spire South Bank Hospital","","139 Bath Road","","Worcester","Worcestershire","WR5 3YB",52.18108749,-2.2162323,"NT3","Spire Healthcare","01905 350 003","spire.southbank@nhs.net","https://www.spirehealthcare.com/spire-south-bank-hospital/","01905 362 031",253715.3906,385216.9375
18386,"NT302","Hospital","Hospital","Independent Sector","Visible",TRUE,"Spire Bristol Hospital","","Redland Hill","","Bristol","","BS6 6UT",51.47204971,-2.61485076,"NT3","Spire Healthcare","0117 980 4000","info@spirebristol.com","https://www.spirehealthcare.com/spire-bristol-hospital/","0117 974 3203",175020.5781,357299.7188
18388,"NT304","Hospital","Hospital","Independent Sector","Visible",TRUE,"Spire Southampton Hospital","Chalybeate Hospital","Chalybeate Close","","Southampton","Hampshire","SO16 6UY",50.93061066,-1.432714343,"NT3","Spire Healthcare","023 8077 5544","spire.southampton@nhs.net","https://www.spirehealthcare.com/spire-southampton-hospital/","",114787.6094,439861.5938
18389,"NT305","Hospital","Hospital","Independent Sector","Visible",TRUE,"Spire Portsmouth Hospital","Bartons Road","","","Havant","Hampshire","PO9 5NP",50.86859131,-0.955126107,"NT3","Spire Healthcare","02392 456 172","info@spireportsmouth.com","https://www.spirehealthcare.com/spire-portsmouth-hospital/","02392 456 012",108258.3438,473517.4063
18390,"NT308","Hospital","Hospital","Independent Sector","Visible",TRUE,"Spire Gatwick Park Hospital","Povey Cross Road","","","Horley","Surrey","RH6 0BB",51.16768265,-0.183382452,"NT3","Spire Healthcare","01293 778919 ","spire.gatwickpark@nhs.net","https://www.spirehealthcare.com/spire-gatwick-park-hospital/","01293 786223",142564.1719,526994.625
18391,"NT309","Hospital","Hospital","Independent Sector","Visible",TRUE,"Spire Sussex Hospital","","The Ridge","","St. Leonards-on-Sea","","TN37 7PT",50.8876915,0.561962903,"NT3","Spire Healthcare","01424 757400","cservice-sx@spirehealthcare.com","https://www.spirehealthcare.com/spire-sussex-hospital/","01424 757 424",112988.625,580176.0625
18392,"NT310","Hospital","Hospital","Independent Sector","Visible",TRUE,"Spire Tunbridge Wells Hospital","Fordcombe Road","Fordcombe","","Tunbridge Wells","Kent","TN3 0RD",51.13451385,0.188159764,"NT3","Spire Healthcare","01892 740 047","info@spiretunbridgewells.com","http://www.spirehealthcare.com/tunbridgewells","01892 740046",139583.7969,553075.3125
18393,"NT312","Hospital","Hospital","Independent Sector","Visible",TRUE,"Spire Alexandra Hospital","Impton Lane","","","Chatham","Kent","ME5 9PG",51.32793427,0.526541173,"NT3","Spire Healthcare","01634 687166","cservice-al@spirehealthcare.com","https://www.spirehealthcare.com/spire-alexandra-hospital/","01634 686 162",161846.0313,576004.375
18394,"NT313","Hospital","Hospital","Independent Sector","Visible",TRUE,"Spire Wellesley Hospital","Eastern Avenue","","","Southend-on-Sea","Essex","SS2 4XH",51.55439377,0.727603078,"NT3","Spire Healthcare","01702 462944","spire.wellesley@nhs.net","https://www.spirehealthcare.com/spire-wellesley-hospital/","01702 447937",187524.2344,589070.625
18395,"NT314","Hospital","Hospital","Independent Sector","Visible",TRUE,"Spire London East Hospital","Roding Lane South","","","Ilford","Essex","IG4 5PZ",51.58715439,0.043077961,"NT3","Spire Healthcare","020 8709 7878","spire.londoneast@nhs.net","https://www.spirehealthcare.com/spire-london-east-hospital","020 8709 7877",189618.9688,541524.5625
18396,"NT315","Hospital","Hospital","Independent Sector","Visible",TRUE,"Spire Bushey Hospital","Heathbourne Road","Bushey Heath","","Bushey","Hertfordshire","WD23 1RD",51.63734055,-0.331717819,"NT3","Spire Healthcare","020 8901 5572","spire.bushey@nhs.net","https://www.spirehealthcare.com/spire-bushey-hospital/","020 8950 7556",194540.375,515436.8438
18397,"NT316","Hospital","Hospital","Independent Sector","Visible",TRUE,"Spire Harpenden Hospital","Spire Harpenden Hospital","Ambrose Lane","","Harpenden","","AL5 4BP",51.82812881,-0.360377461,"NT3","Spire Healthcare","01582 763191","spire.harpenden@nhs.net","https://www.spirehealthcare.com/spire-harpenden-hospital/","0800 585 112",215710.6719,512977.0625
18398,"NT317","Hospital","Hospital","Independent Sector","Visible",TRUE,"Spire Cambridge Lea Hospital","30 New Road","Impington","","Cambridge","Cambridgeshire","CB24 9EL",52.24476242,0.113378502,"NT3","Spire Healthcare","01223 266 900","info@spirecambridge.com","https://www.spirehealthcare.com/spire-cambridge-lea-hospital/","01223 233 421",262879.1875,544269.9375
18399,"NT318","Hospital","Hospital","Independent Sector","Visible",TRUE,"Spire Norwich Hospital","Watton Road","","","Norwich","Norfolk","NR4 7TD",52.62712097,1.225765705,"NT3","Spire Healthcare","01603 456 181","spire.norwich@nhs.net","https://www.spirehealthcare.com/spire-norwich-hospital/","",308187.1875,618291.4375
18400,"NT319","Hospital","Hospital","Independent Sector","Visible",TRUE,"Spire Hartswood Hospital","Eagle Way","","","Brentwood","Essex","CM13 3LE",51.60041428,0.293041915,"NT3","Spire Healthcare","01277 232 525","spire.hartswood@nhs.net","https://www.spirehealthcare.com/spire-hartswood-hospital/","",191606.8438,558791.4375
18401,"NT320","Hospital","Hospital","Independent Sector","Visible",TRUE,"Spire Parkway Hospital","1 Damson Parkway","","","Solihull","West Midlands","B91 2PP",52.42188644,-1.763121605,"NT3","Spire Healthcare","0121 704 1451","spire.parkway@nhs.net","https://www.spirehealthcare.com/spire-parkway-hospital/","0121 711 3436",280501.125,416106.9688
18402,"NT321","Hospital","Hospital","Independent Sector","Visible",TRUE,"Spire Little Aston Hospital","Little Aston Hall Drive","Little Aston","","Sutton Coldfield","","B74 3UP",52.59960938,-1.875568867,"NT3","Spire Healthcare","0121 353 2444","cservice-la@spirehealthcare.com","https://www.spirehealthcare.com/spire-little-aston-hospital/","0121 353 6897",300248.8438,408426.8438
18403,"NT322","Hospital","Hospital","Independent Sector","Visible",TRUE,"Spire Leicester Hospital","","Gartree Road","","Leicester","Leicestershire","LE2 2FF",52.61466599,-1.083456755,"NT3","Spire Healthcare","0116 265 3685","info@spireleicester.com","https://www.spirehealthcare.com/spire-leicester-hospital/","0800 096 0196",302310.5938,462049.125
18404,"NT324","Hospital","Hospital","Independent Sector","Visible",TRUE,"Spire Cheshire Hospital","","Fir Tree Close","Stretton","Warrington","Cheshire","WA4 4LU",53.33747482,-2.576329708,"NT3","Spire Healthcare","01925 265000","spire.cheshire@nhs.net","https://www.spirehealthcare.com/spire-cheshire-hospital/","0800 1953572",382470.2188,361628.4375
18405,"NT325","Hospital","Hospital","Independent Sector","Visible",TRUE,"Spire Murrayfield Hospital","Holmwood Drive","Heswall","","Wirral","Merseyside","CH61 1AU",53.3492775,-3.080098629,"NT3","Spire Healthcare","0151 9295408","spire.murrayfield@nhs.net","https://www.spirehealthcare.com/spire-murrayfield-hospital-wirral/","0151 6480481",384172,328108.6563
18406,"NT327","Hospital","Hospital","Independent Sector","Visible",TRUE,"Spire Manchester Hospital","170 Barlow Moor Road","Didsbury","","Manchester","Greater Manchester","M20 2AF",53.42523193,-2.25366497,"NT3","Spire Healthcare","0161 447 6677","info@spiremanchester.com","https://www.spirehealthcare.com/spire-manchester-hospital/","0161 447 6678",392107.4063,383145.8125
18407,"NT332","Hospital","Hospital","Independent Sector","Visible",TRUE,"Spire Leeds Hospital","","Jackson Avenue","","Leeds","West Yorkshire","LS8 1NT",53.83246994,-1.513913035,"NT3","Spire Healthcare","0113 269 3939","spire.leeds@nhs.net","https://www.spirehealthcare.com/spire-leeds-hospital/","0113 218 5920",437489.6563,431987.375
18408,"NT333","Hospital","Hospital","Independent Sector","Visible",TRUE,"Spire Washington Hospital","Picktree Lane","","","Washington","Tyne and Wear","NE38 9JZ",54.87936783,-1.559100747,"NT3","Spire Healthcare","0191 418 8669","spire.washington@nhs.net","https://www.spirehealthcare.com/spire-washington-hospital/","0191 418 8606",553944.125,428285.4063
18409,"NT337","Hospital","Hospital","Independent Sector","Visible",TRUE,"Spire Liverpool Hospital","Spire Liverpool Hospital","57 Greenbank Road","","Liverpool","","L18 1HQ",53.38527679,-2.924102306,"NT3","Spire Healthcare","0151 733 7123","spire.liverpool@nhs.net","https://www.spirehealthcare.com/spire-liverpool-hospital/","0151 733 8043",388030.6563,338543.3125
18410,"NT339","Hospital","Hospital","Independent Sector","Visible",TRUE,"Spire Regency Hospital","West Street","","","Macclesfield","Cheshire","SK11 8DW",53.26012802,-2.137799501,"NT3","Spire Healthcare","01625 501150","spire.regency@nhs.net","https://www.spirehealthcare.com/spire-regency-hospital-macclesfield/","01625 505433",373720.4063,390808.7813
18412,"NT343","Hospital","Hospital","Independent Sector","Visible",TRUE,"Spire Thames Valley Hospital","Wexham Street","Wexham","","Slough","Berkshire","SL3 6NH",51.54278946,-0.572400808,"NT3","Spire Healthcare","01753 662 241","cservice-tv@spirehealthcare.com","https://www.spirehealthcare.com/spire-thames-valley-hospital/","",183673.6719,498988.9375
18413,"NT344","Hospital","Hospital","Independent Sector","Visible",TRUE,"Spire Dunedin Hospital","16 Bath Road","","","Reading","Berkshire","RG1 6NS",51.45022202,-0.986806393,"NT3","Spire Healthcare","0118 9587676","spire.dunedin@nhs.net","https://www.spirehealthcare.com/spire-dunedin-hospital/","0118 9585531",172900.8594,470397.5625
18414,"NT345","Hospital","Hospital","Independent Sector","Visible",TRUE,"Spire Clare Park Hospital","Crondall Lane","","","Farnham","Surrey","GU10 5XX",51.22512817,-0.847474158,"NT3","Spire Healthcare","01252 895421","cservice-cp@spirehealthcare.com","https://www.spirehealthcare.com/spire-clare-park-hospital/","01252 851705",148014.4844,480471.4063
18416,"NT347","Hospital","Hospital","Independent Sector","Visible",TRUE,"Spire Fylde Coast Hospital","","St. Walburgas Road","","Blackpool","Lancashire","FY3 8BP",53.82605743,-3.019570589,"NT3","Spire Healthcare","01253 394 188","info@spirefyldecoast.com","https://www.spirehealthcare.com/spire-fylde-coast-hospital/","0800 587 4105",437148.7188,332896.8438
18417,"NT348","Hospital","Hospital","Independent Sector","Visible",TRUE,"Spire Elland Hospital","Elland Lane","","","Elland","West Yorkshire","HX5 9EB",53.68877792,-1.828913331,"NT3","Spire Healthcare","01422 324000","spire.elland@nhs.net","https://www.spirehealthcare.com/spire-elland-hospital/","0800 138 8804",421408.5313,411297.0313
18419,"NT350","Hospital","Hospital","Independent Sector","Visible",TRUE,"Spire Methley Park Hospital","Methley Lane","Methley","","Leeds","West Yorkshire","LS26 9HG",53.74044418,-1.423310161,"NT3","Spire Healthcare","01977 518518","spire.methleypark@nhs.net","https://www.spirehealthcare.com/spire-methley-park-hospital/","",427296.9063,438032.6563
18420,"NT351","Hospital","Hospital","Independent Sector","Visible",TRUE,"Spire Hull and East Riding Hospital","Lowfield Road","Anlaby","","Hull","","HU10 7AZ",53.739254,-0.435012013,"NT3","Spire Healthcare","01482 659471 ","spire.hull@nhs.net","https://www.spirehealthcare.com/spire-hull-and-east-riding-hospital/","01482 654033 ",428146.8438,503210.4375
18421,"NT364","Hospital","Hospital","Independent Sector","Visible",TRUE,"The Montefiore Hospital","","2 Montefiore Road","","Hove","East Sussex","BN3 1RD",50.83185577,-0.154885277,"NT3","Spire Healthcare","01273 828 120","montefioreinfo@spirehealthcare.com","http://themontefiorehospital.co.uk/","01273 828 130",105275.7891,529921.375
18423,"NT401","Hospital","Hospital","Independent Sector","Visible",TRUE,"BMI The Alexandra Hospital","The Alexandra Hospital","Mill Lane","","Cheadle","Cheshire","SK8 2PX",53.39726639,-2.21581316,"NT4","BMI Healthcare","0161 428 3656","info@bmihealthcare.co.uk","https://www.bmihealthcare.co.uk/hospitals/bmi-the-alexandra-hospital","0161 491 3867",388988.25,385651.375
18424,"NT402","Hospital","Hospital","Independent Sector","Visible",TRUE,"BMI Bath Clinic","The Bath Clinic","Claverton Down Road","Combe Down","Bath","Avon","BA2 7BR",51.36428452,-2.332021952,"NT4","BMI Healthcare","01225 835555","bath@bmihealthcare.co.uk","https://www.bmihealthcare.co.uk/hospitals/bmi-bath-clinic","01225 835900",162909.9375,376887.3125
18425,"NT403","Hospital","Hospital","Independent Sector","Visible",TRUE,"BMI The Beardwood Hospital","","Preston New Road","","Blackburn","Lancashire","BB2 7AE",53.75504303,-2.513161898,"NT4","BMI Healthcare","01254 507607","beardwood@bmihealthcare.co.uk","https://www.bmihealthcare.co.uk/hospitals/bmi-the-beardwood-hospital","01254 507608",428888.8125,366168.7188
18426,"NT404","Hospital","Hospital","Independent Sector","Visible",TRUE,"BMI The Beaumont Hospital","Chorley New Road","Lostock","","Bolton","Lancashire","BL6 4LA",53.57982254,-2.4991045,"NT4","BMI Healthcare","01204 404404","beaumont@bmihealthcare.co.uk","https://www.bmihealthcare.co.uk/hospitals/bmi-the-beaumont-hospital","01204 404488",409390.125,366958.6563
18427,"NT405","Hospital","Hospital","Independent Sector","Visible",TRUE,"BMI Bishops Wood Hospital","","Rickmansworth Road","","Northwood","Middlesex","HA6 2JW",51.61645126,-0.446507066,"NT4","BMI Healthcare","01923 835814","info@bmihealthcare.co.uk","https://www.bmihealthcare.co.uk/hospitals/bmi-bishops-wood-hospital","01923 835181",192042.4219,507543.8438
18428,"NT406","Hospital","Hospital","Independent Sector","Visible",TRUE,"BMI The Blackheath Hospital","","40 - 42 Lee Terrace","","London","","SE3 9UD",51.46347427,0.006279341,"NT4","BMI Healthcare","020 8318 7722","blackheath@bmihealthcare.co.uk","https://www.bmihealthcare.co.uk/hospitals/bmi-the-blackheath-hospital","020 8318 2542",175796.5156,539352.9375
18430,"NT408","Hospital","Hospital","Independent Sector","Visible",TRUE,"BMI The Chaucer Hospital","","Nackington Road","","Canterbury","Kent","CT4 7AR",51.26171875,1.087459326,"NT4","BMI Healthcare","01227 825100","chaucer@bmihealthcare.co.uk","https://www.bmihealthcare.co.uk/hospitals/bmi-the-chaucer-hospital","01227 762733",155980.7188,615381.5
18431,"NT409","Hospital","Hospital","Independent Sector","Visible",TRUE,"BMI Chelsfield Park Hospital","","Bucks Cross Road","Chelsfield","Orpington","Kent","BR6 7RG",51.3584671,0.130860955,"NT4","BMI Healthcare","01689 877855","chelsfield@bmihealthcare.co.uk","https://www.bmihealthcare.co.uk/hospitals/bmi-chelsfield-park-hospital","01689 837439",164365.75,548344.8125
18432,"NT410","Hospital","Hospital","Independent Sector","Visible",TRUE,"BMI The Chiltern Hospital","","London Road","","Great Missenden","Buckinghamshire","HP16 0EN",51.69053268,-0.69365418,"NT4","BMI Healthcare","01494 890890","chiltern@bmihealthcare.co.uk","https://www.bmihealthcare.co.uk/hospitals/bmi-the-chiltern-hospital","01494 890250",199945.5156,490287.9688
18433,"NT411","Hospital","Hospital","Independent Sector","Visible",TRUE,"BMI The Clementine Churchill Hospital","","Sudbury Hill","","Harrow","Middlesex","HA1 3RX",51.56496811,-0.332694322,"NT4","BMI Healthcare","020 8872 3872","cch@bmihealthcare.co.uk","https://www.bmihealthcare.co.uk/hospitals/bmi-the-clementine-churchill-hospital","020 8872 3871",186491.3906,515552.8438
18434,"NT412","Hospital","Hospital","Independent Sector","Visible",TRUE,"BMI The Droitwich Spa Hospital","","St Andrews Road","","Droitwich","Worcestershire","WR9 8DN",52.26553726,-2.15086627,"NT4","BMI Healthcare","01905 793333","droitwich@bmihealthcare.co.uk","https://www.bmihealthcare.co.uk/hospitals/bmi-the-droitwich-spa-hospital","01905 793334",263096.3438,389705.3438
18436,"NT414","Hospital","Hospital","Independent Sector","Visible",TRUE,"BMI Fawkham Manor Hospital","Manor Lane","Fawkham","","Longfield","Kent","DA3 8ND",51.37290573,0.286065489,"NT4","BMI Healthcare","01474 879900","fawkham@bmihealthcare.co.uk","https://www.bmihealthcare.co.uk/hospitals/bmi-fawkham-manor-hospital","01474 879827",166296.4844,559098.5
18438,"NT416","Hospital","Hospital","Independent Sector","Visible",TRUE,"BMI Hendon Hospital","BMI Hendon Hospital","46-50 Sunny Gardens Road","Hendon","London","","NW4 1RP",51.59371185,-0.224589705,"NT4","BMI Healthcare","020 8457 4500","garden@bmihealthcare.co.uk","https://www.bmihealthcare.co.uk/hospitals/bmi-hendon-hospital","020 8457 4567",189863.8594,522966.9063
18439,"NT417","Hospital","Hospital","Independent Sector","Visible",TRUE,"BMI Goring Hall Hospital","Bodiam Avenue","Goring-By-Sea","","Worthing","West Sussex","BN12 5AT",50.81138992,-0.431818694,"NT4","BMI Healthcare","01903 506699","info@bmihealthcare.co.uk","https://www.bmihealthcare.co.uk/hospitals/bmi-goring-hall-hospital","01903 242348",102549.9141,510470.8125
18441,"NT419","Hospital","Hospital","Independent Sector","Visible",TRUE,"BMI The Harbour Hospital","","St Mary's Road","","Poole","Dorset","BH15 2BH",50.72200775,-1.975681186,"NT4","BMI Healthcare","01202 244200","info@bmihealthcare.co.uk","https://www.bmihealthcare.co.uk/hospitals/bmi-the-harbour-hospital","01202 244201",91439.94531,401716.4688
18442,"NT420","Hospital","Hospital","Independent Sector","Visible",TRUE,"BMI The Highfield Hospital","","Manchester Road","","Rochdale","Lancashire","OL11 4LZ",53.60650635,-2.167490244,"NT4","BMI Healthcare","01706 655121","highfield@bmihealthcare.co.uk","https://www.bmihealthcare.co.uk/hospitals/bmi-the-highfield-hospital","01706 356759",412255.75,388918.875
18443,"NT421","Hospital","Hospital","Independent Sector","Visible",TRUE,"BMI The Kings Oak Hospital","","The Ridgeway","","Enfield","Middlesex","EN2 8SD",51.66790009,-0.105554052,"NT4","BMI Healthcare","020 8370 9500","kingsoak@bmihealthcare.co.uk","https://www.bmihealthcare.co.uk/hospitals/bmi-the-kings-oak-hospital","020 8370 9501",198319.9688,530996.875
18444,"NT422","Hospital","Hospital","Independent Sector","Visible",TRUE,"BMI The London Independent Hospital","","1 Beaumont Square","Stepney Green","London","","E1 4NL",51.520401,-0.046729956,"NT4","BMI Healthcare","020 7780 2400","lih@bmihealthcare.co.uk","https://www.bmihealthcare.co.uk/hospitals/bmi-the-london-independent-hospital","020 7780 2401",182026.5938,535502.375
18445,"NT423","Hospital","Hospital","Independent Sector","Visible",TRUE,"BMI The Manor Hospital","","Church End","","Biddenham","Bedfordshire","MK40 4AW",52.13838577,-0.513136744,"NT4","BMI Healthcare","01234 364252","manor@bmihealthcare.co.uk","https://www.bmihealthcare.co.uk/hospitals/bmi-the-manor-hospital","01234 325001",249986.625,501746.3438
18446,"NT424","Hospital","Hospital","Independent Sector","Visible",TRUE,"BMI The Meriden Hospital","University Hospital Site","Clifford Bridge Road","","Coventry","Warwickshire","CV2 2LQ",52.42121506,-1.438388586,"NT4","BMI Healthcare","024 7664 7000","meriden@bmihealthcare.co.uk","https://www.bmihealthcare.co.uk/hospitals/bmi-the-meriden-hospital","024 7664 7001",280548.4063,438188.1875
18449,"NT427","Hospital","Hospital","Independent Sector","Visible",TRUE,"BMI The Park Hospital","Sherwood Lodge Drive","Burntstump Country Park","","Arnold","Nottinghamshire","NG5 8RX",53.0500946,-1.142871261,"NT4","BMI Healthcare","0115 9662000","","https://www.bmihealthcare.co.uk/hospitals/bmi-the-park-hospital","0115 9670381",350691.9063,457449.5
18450,"NT428","Hospital","Hospital","Independent Sector","Visible",TRUE,"BMI The Princess Margaret Hospital","","Osborne Road","","Windsor","Berkshire","SL4 3SJ",51.47469711,-0.61026597,"NT4","BMI Healthcare","01753 743434","info@bmihealthcare.co.uk","https://www.bmihealthcare.co.uk/hospitals/bmi-the-princess-margaret-hospital","01753 743435",176051.4844,496507.2813
18451,"NT429","Hospital","Hospital","Independent Sector","Visible",TRUE,"BMI The Priory Hospital","Priory Road","Edgbaston","","Birmingham","West Midlands","B5 7UG",52.45643234,-1.911408663,"NT4","BMI Healthcare","0121 4402323","priory@bmihealthcare.co.uk","https://www.bmihealthcare.co.uk/hospitals/bmi-the-priory-hospital","0121 4400804",284320.6875,406019.2188
18452,"NT430","Hospital","Hospital","Independent Sector","Visible",TRUE,"BMI The Ridgeway Hospital","Moormead Road","Wroughton","","Swindon","Wiltshire","SN4 9DD",51.52532959,-1.786146641,"NT4","BMI Healthcare","01793 814848","ridgeway@bmihealthcare.co.uk","https://www.bmihealthcare.co.uk/hospitals/bmi-the-ridgeway-hospital","01793 814852",180787.9375,414834.5
18453,"NT431","Hospital","Hospital","Independent Sector","Visible",TRUE,"BMI The Runnymede Hospital","Guildford Road","Ottershaw","","Chertsey","Surrey","KT16 0RQ",51.37797546,-0.524110198,"NT4","BMI Healthcare","01932 877800","runnymede@bmihealthcare.co.uk","https://www.bmihealthcare.co.uk/hospitals/bmi-the-runnymede-hospital","01932 875433",165413.6719,502706.5313
18454,"NT432","Hospital","Hospital","Independent Sector","Visible",TRUE,"BMI The Sandringham Hospital","","Gayton Road","","King's Lynn","Norfolk","PE30 4HJ",52.75782013,0.447176158,"NT4","BMI Healthcare","01553 769770","sandringham@bmihealthcare.co.uk","https://www.bmihealthcare.co.uk/hospitals/bmi-the-sandringham-hospital","01553 767573",320646.6563,565119.0625
18455,"NT433","Hospital","Hospital","Independent Sector","Visible",TRUE,"BMI Sarum Road Hospital","","Sarum Road","","Winchester","Hampshire","SO22 5HA",51.06130219,-1.338494301,"NT4","BMI Healthcare","01962 844555","sarum@bmihealthcare.co.uk","https://www.bmihealthcare.co.uk/hospitals/bmi-sarum-road-hospital","01962 842620",129374.6563,446351.75
18456,"NT434","Hospital","Hospital","Independent Sector","Visible",TRUE,"BMI The Saxon Clinic","Chadwick Drive","Eaglestone West","","Milton Keynes","Buckinghamshire","MK6 5LR",52.02561569,-0.740350008,"NT4","BMI Healthcare","01908 665533","saxon@bmihealthcare.co.uk","https://www.bmihealthcare.co.uk/hospitals/bmi-the-saxon-clinic","01908 608112",237151.4063,486416.3125
18457,"NT435","Hospital","Hospital","Independent Sector","Visible",TRUE,"BMI The Shelburne Hospital","","Queen Alexandra Road","","High Wycombe","Buckinghamshire","HP11 2TR",51.62637711,-0.754729986,"NT4","BMI Healthcare","01494 888700","shelburne@bmihealthcare.co.uk","https://www.bmihealthcare.co.uk/hospitals/bmi-the-shelburne-hospital","01494 888701",192737.6094,486188.5
18458,"NT436","Hospital","Hospital","Independent Sector","Visible",TRUE,"BMI Shirley Oaks Hospital","","Poppy Lane","","Croydon","Surrey","CR9 8AB",51.38230133,-0.056337729,"NT4","BMI Healthcare","0208 655 5500","info@bmihealthcare.co.uk","https://www.bmihealthcare.co.uk/hospitals/bmi-shirley-oaks-hospital","0208 655 5555",166653.75,535243.4375
18459,"NT437","Hospital","Hospital","Independent Sector","Visible",TRUE,"BMI The Sloane Hospital","","Albemarle Road","","Beckenham","Kent","BR3 5HS",51.40833282,-0.004345959,"NT4","BMI Healthcare","020 8466 4000","sloane@bmihealthcare.co.uk","https://www.bmihealthcare.co.uk/hospitals/bmi-the-sloane-hospital","020 8466 4001",169645.3125,538782
18461,"NT439","Hospital","Hospital","Independent Sector","Visible",TRUE,"BMI The South Cheshire Private Hospital","","Leighton","","Crewe","Cheshire","CW1 4QP",53.11852264,-2.478353024,"NT4","BMI Healthcare","01270 500411","southcheshire@bmihealthcare.co.uk","https://www.bmihealthcare.co.uk/hospitals/bmi-the-south-cheshire-private-hospital","01270 583297",358066.875,367988.7188
18462,"NT440","Hospital","Hospital","Independent Sector","Visible",TRUE,"BMI Thornbury Hospital","","312 Fulwood Road","","Sheffield","","S10 3BR",53.37451935,-1.517261028,"NT4","BMI Healthcare","0114 2661133","info@bmihealthcare.co.uk","https://www.bmihealthcare.co.uk/hospitals/bmi-thornbury-hospital","0114 2686913",386544.7813,432112.5625
18463,"NT441","Hospital","Hospital","Independent Sector","Visible",TRUE,"BMI Three Shires Hospital","The Avenue","Cliftonville","","Northampton","Northamptonshire","NN1 5DR",52.23614502,-0.874308646,"NT4","BMI Healthcare","01604 620311","threeshires@bmihealthcare.co.uk","https://www.bmihealthcare.co.uk/hospitals/bmi-three-shires-hospital","01604 629066",260413.6406,476863.4063
18464,"NT443","Hospital","Hospital","Independent Sector","Visible",TRUE,"BMI The Winterbourne Hospital","","Herringston Road","","Dorchester","Dorset","DT1 2DR",50.7010231,-2.441853046,"NT4","BMI Healthcare","01305 263252","winterbourne@bmihealthcare.co.uk","https://www.bmihealthcare.co.uk/hospitals/bmi-the-winterbourne-hospital","01305 265424",89199.50781,368799.5625
18466,"NT445","Hospital","Hospital","Independent Sector","Visible",TRUE,"BMI The Edgbaston Hospital","22 Somerset Road","Edgbaston","","Birmingham","West Midlands","B15 2QQ",52.4575882,-1.932878017,"NT4","BMI Healthcare","0121 456 2000","birminghamenquiries@bmihealthcare.co.uk","https://www.bmihealthcare.co.uk/hospitals/bmi-the-edgbaston-hospital","0121 454 5293",284447.6563,404560.375
18467,"NT446","Hospital","Hospital","Independent Sector","Visible",TRUE,"BMI Bury St Edmunds Hospital","","St. Marys Square","","Bury St. Edmunds","Suffolk","IP33 2AA",52.24007797,0.719400406,"NT4","BMI Healthcare","01284 701 371","info@bmihealthcare.co.uk","https://www.bmihealthcare.co.uk/hospitals/bmi-st-edmunds-hospital","01284 716 703",263738.375,585652.75
18468,"NT447","Hospital","Hospital","Independent Sector","Visible",TRUE,"BMI The Duchy Hospital","","Queens Road","","Harrogate","North Yorkshire","HG2 0HF",53.98757172,-1.547796488,"NT4","BMI Healthcare","01423 567 136","info@bmihealthcare.co.uk","https://www.bmihealthcare.co.uk/hospitals/bmi-the-duchy-hospital","01423 524 381",454729.6875,429647.5938
18469,"NT448","Hospital","Hospital","Independent Sector","Visible",TRUE,"BMI The Huddersfield Hospital","","Birkby Hall Road","","Huddersfield","West Yorkshire","HD2 2BL",53.6583519,-1.798727751,"NT4","BMI Healthcare","01484 533 131","info@bmihealthcare.co.uk","https://www.bmihealthcare.co.uk/hospitals/bmi-the-huddersfield-hospital","01484 428 396",418029.0313,413299.8125
18470,"NT449","Hospital","Hospital","Independent Sector","Visible",TRUE,"BMI The Lancaster Hospital","","Meadowside","","Lancaster","Lancashire","LA1 3RH",54.04319763,-2.795393229,"NT4","BMI Healthcare","01524 62345","info@bmihealthcare.co.uk","https://www.bmihealthcare.co.uk/hospitals/bmi-the-lancaster-hospital","01524 844 725",461116.0938,347921.875
18471,"NT450","Hospital","Hospital","Independent Sector","Visible",TRUE,"BMI The Lincoln Hospital","","Nettleham Road","","Lincoln","Lincolnshire","LN2 1QU",53.23808289,-0.533085406,"NT4","BMI Healthcare","01522 578 000","","https://www.bmihealthcare.co.uk/hospitals/bmi-the-lincoln-hospital","01522 514 021",372263.3125,497890.3438
18472,"NT451","Hospital","Hospital","Independent Sector","Visible",TRUE,"BMI The Cavell Hospital","Cavell Drive","Uplands Park Road","","Enfield","Middlesex","EN2 7PR",51.65922546,-0.101346962,"NT4","BMI Healthcare","020 8366 2122","info@bmihealthcare.co.uk","https://www.bmihealthcare.co.uk/hospitals/bmi-the-cavell-hospital","020 8367 8032",197362.9688,531312.8125
18476,"NT455","Hospital","Hospital","Independent Sector","Visible",TRUE,"BMI Mount Alvernia Hospital","46 Harvey Road","","","Guildford","Surrey","GU1 3LX",51.23574829,-0.564204454,"NT4","BMI Healthcare","01483 570122","info@bmihealthcare.co.uk","https://www.bmihealthcare.co.uk/hospitals/bmi-mount-alvernia-hospital","01483 532554",149543.6875,500225.9063
18500,"NT490","Hospital","Hospital","Independent Sector","Visible",TRUE,"BMI Southend Private Hospital","","15-17 Fairfax Drive","","","","SS0 9AG",51.55002975,0.699760079,"NT4","BMI Healthcare","","","","",186967.4219,587158.875
18501,"NT497","Hospital","Hospital","Independent Sector","Visible",TRUE,"BMI Gisburne Park Hospital","Gisburn Park Estate","Gisburn","","Clitheroe","Lancashire","BB7 4HX",53.94332886,-2.267543077,"NT4","BMI Healthcare","01200 445693","","https://www.bmihealthcare.co.uk/hospitals/bmi-gisburne-park-hospital","01200 445688",449746.1563,382440.5625
18526,"NT708","Hospital","Hospital","Independent Sector","Visible",FALSE,"Royal Hospital Haslar","Haslar Road","","","Gosport","Hampshire","PO12 2AA",50.78601837,-1.124631882,"NT7","Netcare Healthcare UK","","","","",98922.16406,461699.9375
18564,"NTE02","Hospital","Hospital","Independent Sector","Visible",TRUE,"St Hugh's Hopsital","Peaks Lane","","","Grimsby","South Humberside","DN32 9RP",53.55105209,-0.073805079,"NTE","Claremont & St Hugh's Hospitals (Hmt)","01472 251100","admin@sthughshospital.co.uk","http://www.sthughshospital.co.uk","01472 251130",407799.3438,527596.4375
18620,"NTN03","Hospital","Hospital","Independent Sector","Visible",TRUE,"Priory Hospital Hemel Hempstead","Longcroft Lane","Felden","","Hemel Hempstead","Hertfordshire","HP3 0BN",51.73241043,-0.498069763,"NTN","Priory Group Limited","01442 255 371","hemelhempstead@priorygroup.com","http://www.priorygroup.com/hemelhempstead","01442 265 630",204862.25,503709.25
18621,"NTN04","Hospital","Hospital","Independent Sector","Visible",TRUE,"Heathfield","Tottingworth Park","Broad Oak","","Heathfield","East Sussex","TN21 8UN",50.98192596,0.306597054,"NTN","Priory Group Limited","01435 864 545","heathfield@priorygroup.com","http://www.priorygroup.com/heathfield","01435 869 609",122872.7656,561891.3125
18622,"NTN05","Hospital","Hospital","Independent Sector","Visible",TRUE,"Priory Hospital Ticehurst ","","Ticehurst","","Wadhurst","East Sussex","TN5 7HU",51.04955292,0.398391992,"NTN","Priory Group Limited","01580 200 391","ticehurst@priorygroup.com","http://www.priorygroup.com/ticehurst","01580 201 006",130596.7578,568088.5
18624,"NTN07","Hospital","Hospital","Independent Sector","Visible",TRUE,"Priory Hospital Chelmsford","Stump Lane","Springfield Green","","Chelmsford","Essex","CM1 7SJ",51.74317932,0.487775713,"NTN","Priory Group Limited","01245 345 345","chelmsford@priorygroup.com","https://www.priorygroup.com/locations/priory-hospital-chelmsford","01245 346 177",207920.9688,571733.6875
18625,"NTN08","Hospital","Hospital","Independent Sector","Visible",TRUE,"Woodbourne Priory Hospital","21 Woodbourne Road","Edgbaston","","Birmingham","West Midlands","B17 8BY",52.47169495,-1.95580709,"NTN","Priory Group Limited","0121 434 4343","woodbourne@priorygroup.com","https://www.priorygroup.com/locations/priory-hospital-woodbourne-birmingham","0121 434 3270",286015.4375,403001.5938
18626,"NTN09","Hospital","Hospital","Independent Sector","Visible",TRUE,"Priory Hospital Hayes Grove","Prestons Road","Hayes","","Bromley","Kent","BR2 7AS",51.37308121,0.014595352,"NTN","Priory Group Limited","020 8462 7722","hayesgrove@priorygroup.com","https://www.priorygroup.com/locations/priory-hospital-hayes-grove","020 8462 5028",165761.8594,540206.8125
18627,"NTN10","Hospital","Hospital","Independent Sector","Visible",TRUE,"Priory Hospital Roehampton","Priory Lane","Roehampton","","London","","SW15 5JJ",51.46253967,-0.251494706,"NTN","Priory Group Limited","020 8876 8261","roehampton@priorygroup.com","https://www.priorygroup.com/locations/priory-hospital-roehampton-london","020 8392 2632",175233.5625,521452.1563
18628,"NTN11","Hospital","Hospital","Independent Sector","Visible",TRUE,"Priory Hospital Woking","","Chobham Road","Knaphill","Woking","Surrey","GU21 2QF",51.31982422,-0.622614145,"NTN","Priory Group Limited","01483 489 211","woking@priorygroup.com","https://www.priorygroup.com/locations/priory-hospital-woking","01483 797 053",158814.2344,495973.4063
18629,"NTN12","Hospital","Hospital","Independent Sector","Visible",TRUE,"Priory Hospital Southampton","Priory Hospital Southampton","Marchwood Park","Marchwood","Southampton","Hampshire","SO40 4WU",50.87963104,-1.447607636,"NTN","Priory Group Limited","023 8084 0044","southampton@priorygroup.com","https://www.priorygroup.com/locations/priory-hospital-southampton","023 8020 7554",109111.1797,438857.5
18630,"NTN13","Hospital","Hospital","Independent Sector","Visible",TRUE,"Priory Hospital Altrincham","","Rappax Road","Hale","Altrincham","Cheshire","WA15 0NU",53.3655777,-2.331951857,"NTN","Priory Group Limited","0161 904 0050","altrincham@priorygroup.com","https://www.priorygroup.com/locations/priory-hospital-altrincham","0161 980 4322",385492.875,377913.375
18631,"NTN14","Hospital","Hospital","Independent Sector","Visible",TRUE,"Priory Hospital Preston","Rosemary Lane","Bartle","","Preston","Lancashire","PR4 0HB",53.80200577,-2.785323381,"NTN","Priory Group Limited","01772 691 122","preston@priorygroup.com","http://www.priorygroup.com/preston","01772 691 246",434277.0938,348283.9375
18632,"NTN15","Hospital","Hospital","Independent Sector","Visible",TRUE,"Priory Hospital North London","Grovelands House","The Bourne","Southgate","London","","N14 6RA",51.63027191,-0.120334625,"NTN","Priory Group Limited","020 8882 8191","northlondon@priorygroup.com","https://www.priorygroup.com/locations/priory-hospital-north-london/north-london","020 8447 8138",194109.5781,530082.5625
18634,"NTN23","Hospital","Hospital","Independent Sector","Visible",TRUE,"Priory Hospital Cheadle Royal","","100 Wilmslow Road","","Cheadle","Cheshire","SK8 3DG",53.37493896,-2.221472025,"NTN","Priory Group Limited","0161 428 9511","cheadleroyal@priorygroup.com","http://www.priorygroup.com/cheadleroyal","0161 428 1870",386505.7188,385267.4375
18635,"NTN24","Hospital","Hospital","Independent Sector","Visible",TRUE,"Priory Hospital Middleton St George","","Middleton St George","","Darlington","Durham","DL2 1TS",54.51710892,-1.433142424,"NTN","Priory Group Limited","01325 333192","middletonstgeorge@priorygroup.com","http://www.priorygroup.com/middletonstgeorge","01325 333 883",513696.6875,436691.5
18653,"NTN38","Hospital","Hospital","Independent Sector","Visible",TRUE,"Priory Hospital Bristol","","Heath House Lane","Stapleton","Bristol","Avon","BS16 1EQ",51.47973633,-2.566757441,"NTN","Priory Group Limited","0117 952 5255","bristol@priorygroup.com","https://www.priorygroup.com/locations/priory-hospital-bristol","0117 952 5552",175848.4063,360646.2813
18656,"NTP11","Hospital","Hospital","Independent Sector","Visible",TRUE,"Royal South Hants Hospital - Care UK","c/o Care UK - Level C","Southampton NHS Treatment Centre","Brintons Terrace","Southampton","Hampshire","SO14 0YG",50.91239166,-1.397062421,"NTP","Care UK","0333 200 1820","","http://www.southamptontreatmentcentre.nhs.uk","0333 200 1732",112781.6719,442383.2813
18660,"NTP15","Hospital","Hospital","Independent Sector","Visible",TRUE,"North East London NHS Treatment Centre","c/o Care UK","King George Hospital","Barley Lane","Ilford","Essex","IG3 8YB",51.58054352,0.112121284,"NTP","Care UK","0333 200 4069","cuk.enquiriesneltc@nhs.net","http://www.nelondontreatmentcentre.nhs.uk","0208 598 4261",189019.8438,546328
18729,"NTV13","Hospital","Hospital","Independent Sector","Visible",TRUE,"Leatherhead Community Hospital","Poplar Road","Surrey","","Leatherhead","Surrey","KT22 8SD",51.29505157,-0.320272893,"NTV","Central Surrey Health","01372 384 384","","http://www.cshsurrey.co.uk","",156498.5938,517101.7813
18731,"NTV15","Hospital","Hospital","Independent Sector","Visible",TRUE,"Molesey Community Hospital","","High Street","","West Molesey","Surrey","KT8 2LU",51.39753342,-0.372527897,"NTV","Central Surrey Health","020 8941 4481","","http://www.cshsurrey.co.uk","",167811.5781,513206.2188
18732,"NTV16","Hospital","Hospital","Independent Sector","Visible",TRUE,"New Epsom and Ewell Community Hospital","","West Park Road","Horton Lane","Epsom","Surrey","KT19 8PB",51.34170914,-0.301640064,"NTV","Central Surrey Health","01372 734845","","http://www.cshsurrey.co.uk","",161716.3281,518280.5938
18758,"NTY93","Hospital","Hospital","Independent Sector","Visible",TRUE,"Tarporley War Memorial Hospital Trust","14 Park Road","","","Tarporley","Cheshire","CW6 0AP",53.15922165,-2.66672349,"NTY","Other Private Healthcare Providers","01829 732436","","","",362694.6875,355425.2813
18761,"NT457","Hospital","Hospital","Independent Sector","Visible",TRUE,"BMI Woodlands Hospital","","Morton Park","","Darlington","Durham","DL1 4PL",54.52036285,-1.504655719,"NT4","BMI Healthcare","01325 341700","sophie.howey@bmihealthcare.co.uk","https://www.bmihealthcare.co.uk/hospitals/bmi-woodlands-hospital","01325 341701",514023.7813,432060.0625
18765,"NTYF2","Hospital","Hospital","Independent Sector","Visible",TRUE,"Optegra Eye Hospital Birmingham","","Coleshill Street","","Birmingham","West Midlands","B4 7ET",52.48664093,-1.890937567,"NNH","Optegra UK","0121 204 3800","icare.birmingham@optegra.com","https://www.optegra.com","0121 204 3821",287682.4375,407405.0313
18789,"NV201","Hospital","Hospital","Independent Sector","Visible",TRUE,"The Huntercombe Hospital Maidenhead","Huntercombe Lane South","Taplow","","Maidenhead","Berkshire","SL6 0PQ",51.51879501,-0.659095943,"NV2","The Huntercombe Group","01628 667881","maidenhead@huntercombe.com","https://www.huntercombe.com/testimonials/?center=701","",180891.7969,493026.6875
18791,"NV203","Hospital","Hospital","Independent Sector","Visible",TRUE,"The Huntercombe Hospital Stafford","Ivetsey Bank","Wheaton Aston","","Stafford","Staffordshire","ST19 9QT",52.69441223,-2.233263016,"NV2","The Huntercombe Group","01785 840000","stafford@huntercombe.com","http://www.huntercombe.com","",310811.5938,384236.8438
18802,"NV302","Hospital","Hospital","Independent Sector","Visible",TRUE,"Circle Bath Hospital","Foxcote Avenue","Peasedown St John","","Bath","","BA2 8SF",51.31171036,-2.41733408,"NV3","Circle Health","01761 422 324","","http://www.circlebath.co.uk","01761 422 223",157094.0313,370915.3438
18806,"NV313","Hospital","Hospital","Independent Sector","Visible",TRUE,"Circle Nottingham NHS Treatment Centre","Nottingham NHS Treatment Centre","Lister Road","","Nottingham","","NG7 2FT",52.94232941,-1.182427764,"NV3","Circle Health","0115 9705800","nottingham@circlepartnership.co.uk","http://www.circlenottingham.co.uk","",338674.3438,454934.875
18807,"NV323","Hospital","Hospital","Independent Sector","Visible",TRUE,"Circle Reading Hospital","","100 Drake Way","","Reading","","RG2 0NE",51.42933273,-0.976393759,"NV3","Circle Health","01189 226 888","enquiries@circlereading.co.uk","http://www.circlereading.co.uk","",170588.0469,471153.4688
18819,"NV7R1","Hospital","Hospital","Independent Sector","Visible",TRUE,"Bupa Cromwell Hospital","164-178 Cromwell Road","","","London","","SW5 0TU",51.49510574,-0.19137083,"NV7","Bupa Group","020 7460 2000","info@cromwellhospital.com","http://www.bupacromwellhospital.com/","",178956.0469,525538.625
18826,"NVC01","Hospital","Hospital","Independent Sector","Visible",TRUE,"Ashtead Hospital","The Warren","","","Ashtead","Surrey","KT21 2SB",51.30434036,-0.303277969,"NVC","Ramsay Healthcare UK Operations Limited","01372 221400","ashtead.enquiries@ramsayhealth.co.uk","http://www.ashteadhospital.co.uk","01372 221445",157558.6563,518262.625
18827,"NVC02","Hospital","Hospital","Independent Sector","Visible",TRUE,"The Berkshire Independent Hospital","Swallowscroft","Wensley Road","","Reading","Berkshire","RG1 6UZ",51.44454956,-0.988298833,"NVC","Ramsay Healthcare UK Operations Limited","0118 902 8000","berkshire.enquiries@ramsayhealth.co.uk","http://www.berkshireindependenthospital.co.uk","0118 902 8050",172268.6563,470302.5625
18829,"NVC04","Hospital","Hospital","Independent Sector","Visible",TRUE,"Duchy Hospital","Penventinnie Lane","","","Truro","Cornwall","TR1 3UP",50.26794434,-5.093553543,"NVC","Ramsay Healthcare UK Operations Limited","01872 226115","duchy.enquiries@ramsayhealth.co.uk","http://www.duchyhospital.co.uk","01872 226118 ",45533.30078,179569.3281
18830,"NVC05","Hospital","Hospital","Independent Sector","Visible",TRUE,"Euxton Hall Hospital","Wigan Road","Euxton","","Chorley","Lancashire","PR7 6DY",53.66095352,-2.676298857,"NVC","Ramsay Healthcare UK Operations Limited","01257 276261","euxton.enquiries@ramsayhealth.co.uk","http://www.euxtonhallhospital.co.uk","01257 261882 ",418512.0625,355314.0938
18831,"NVC06","Hospital","Hospital","Independent Sector","Visible",TRUE,"Fitzwilliam Hospital","Milton Way","Bretton","","Peterborough","Cambridgeshire","PE3 9AQ",52.57646942,-0.297534764,"NVC","Ramsay Healthcare UK Operations Limited","01733 842333 ","fitzwilliam.enquiries@ramsayhealth.co.uk","http://www.fitzwilliamhospital.co.uk","01733 842331",299029.0625,515352.4375
18832,"NVC07","Hospital","Hospital","Independent Sector","Visible",TRUE,"Fulwood Hall Hospital","Midgery Lane","Fulwood","","Preston","Lancashire","PR2 9SZ",53.78632355,-2.684020996,"NVC","Ramsay Healthcare UK Operations Limited","01772 704111","fulwood.enquiries@ramsayhealth.co.uk","http://www.fulwoodhallhospital.co.uk/","01772 795131 ",432463.5,354938.0938
18833,"NVC08","Hospital","Hospital","Independent Sector","Visible",TRUE,"Mount Stuart Hospital","St. Vincents Road","","","Torquay","Devon","TQ1 4UP",50.47509766,-3.541743517,"NVC","Ramsay Healthcare UK Operations Limited","01803 313881 ","mountstuart.enquiries@ramsayhealth.co.uk","http://www.mountstuarthospital.co.uk","01803 321698",65121.92188,290613.4063
18834,"NVC09","Hospital","Hospital","Independent Sector","Visible",TRUE,"New Hall Hospital","Bodenham","","","Salisbury","Wiltshire","SP5 4EY",51.03070831,-1.763829231,"NVC","Ramsay Healthcare UK Operations Limited","01722 422 333","newhall.enquiries@ramsayhealth.co.uk","http://www.new-hallhospital.co.uk","01722 435158",125791.1719,416559.4688
18836,"NVC11","Hospital","Hospital","Independent Sector","Visible",TRUE,"North Downs Hospital","46 Tupwood Lane","","","Caterham","Surrey","CR3 6DP",51.27355576,-0.079138406,"NVC","Ramsay Healthcare UK Operations Limited","01883 348981","northdowns.enquiries@ramsayhealth.co.uk","http://www.northdownshospital.co.uk","01883 341163",154520.875,533973.6875
18837,"NVC12","Hospital","Hospital","Independent Sector","Visible",TRUE,"Oaklands Hospital","19 Lancaster Road","","","Salford","Greater Manchester","M6 8AQ",53.49230194,-2.321049213,"NVC","Ramsay Healthcare UK Operations Limited","0161 7877700","oaklands.enquiries@ramsayhealth.co.uk","http://www.oaklands-hospital.co.uk","0161 7878097 ",399586.3125,378702.2188
18838,"NVC13","Hospital","Hospital","Independent Sector","Visible",TRUE,"Oaks Hospital","Oaks Place","Mile End Road","","Colchester","Essex","CO4 5XR",51.90629959,0.894992948,"NVC","Ramsay Healthcare UK Operations Limited","01206 752 121","oaks.enquiries@ramsayhealth.co.uk","http://www.oakshospital.co.uk","01206 852 701 ",227093.5469,599118.1875
18839,"NVC14","Hospital","Hospital","Independent Sector","Visible",TRUE,"Park Hill Hospital","Thorne Road","","","Doncaster","South Yorkshire","DN2 5TH",53.53036499,-1.111603141,"NVC","Ramsay Healthcare UK Operations Limited","01302 730300 ","parkhill.enquiries@ramsayhealth.co.uk","http://www.parkhillhospital.co.uk","01302 322499",404139.6563,458881.125
18840,"NVC15","Hospital","Hospital","Independent Sector","Visible",TRUE,"Pinehill Hospital","","Benslow Lane","","Hitchin","Hertfordshire","SG4 9QZ",51.95029831,-0.262984931,"NVC","Ramsay Healthcare UK Operations Limited","01462 422822","pinehill.enquiries@ramsayhealth.co.uk","http://www.pinehillhospital.co.uk","01462 421968",229451.2813,519363.1875
18841,"NVC16","Hospital","Hospital","Independent Sector","Visible",TRUE,"Renacres Hospital","Renacres Lane","Halsall","","Ormskirk","Lancashire","L39 8SE",53.60013199,-2.950682878,"NVC","Ramsay Healthcare UK Operations Limited","01704 841133","renacres.enquiries@ramsayhealth.co.uk","http://www.renacreshospital.co.uk","01704 842030 ",411953.6875,337094.4063
18842,"NVC17","Hospital","Hospital","Independent Sector","Visible",TRUE,"Rowley Hall Hospital","Rowley Avenue","","","Stafford","Staffordshire","ST17 9AQ",52.79478073,-2.126266718,"NVC","Ramsay Healthcare UK Operations Limited","01785 238600","rowley.enquiries@ramsayhealth.co.uk","http://www.rowleyhospital.co.uk","01785 249532 ",321957.25,391486.9063
18843,"NVC18","Hospital","Hospital","Independent Sector","Visible",TRUE,"Springfield Hospital","Lawn Lane","","","Chelmsford","Essex","CM1 7GU",51.75337219,0.484612137,"NVC","Ramsay Healthcare UK Operations Limited","01245 234 000","springfield.enquiries@ramsayhealth.co.uk","http://www.springfieldhospital.co.uk","01245 234 001",209046.8125,571476.75
18844,"NVC19","Hospital","Hospital","Independent Sector","Visible",TRUE,"Rivers Hospital","High Wych Road","","","Sawbridgeworth","Hertfordshire","CM21 0HH",51.80709457,0.130471587,"NVC","Ramsay Healthcare UK Operations Limited","01279 600282","rivers.enquiries@ramsayhealth.co.uk","https://www.rivershospital.co.uk","01279 600212",214246.8594,546863.8125
18846,"NVC21","Hospital","Hospital","Independent Sector","Visible",TRUE,"West Midlands Hospital","Colman Hill","","","Halesowen","West Midlands","B63 2AH",52.45781708,-2.076659679,"NVC","Ramsay Healthcare UK Operations Limited"," 01384 560123 ","westmidlands.enquiries@ramsayhealth.co.uk","http://www.westmidlandshospital.co.uk","01384 411103Â  ",284473.75,394791.625
18847,"NVC22","Hospital","Hospital","Independent Sector","Visible",TRUE,"Winfield Hospital","Tewkesbury Road","Longford","","Gloucester","Gloucestershire","GL2 9WH",51.88044357,-2.24241662,"NVC","Ramsay Healthcare UK Operations Limited","01452 331111","winfield.enquiries@ramsayhealth.co.uk","http://www.winfieldhospital.co.uk","",220285.3906,383315.2813
18848,"NVC23","Hospital","Hospital","Independent Sector","Visible",TRUE,"Woodland Hospital","Woodland Hospital","Rothwell Road","","Kettering","Northamptonshire","NN16 8XF",52.41162872,-0.768490613,"NVC","Ramsay Healthcare UK Operations Limited","01536 414515","woodland.enquiries@ramsayhealth.co.uk","http://www.woodlandhospital.co.uk","01536 412155",280047.1875,483756.4688
18850,"NVC25","Hospital","Hospital","Independent Sector","Visible",TRUE,"Horton NHS Treatment Centre","","Oxford Road","","Banbury","Oxfordshire","OX16 9FG",52.05352402,-1.336649418,"NVC","Ramsay Healthcare UK Operations Limited","01295 755 000","horton.enquiries@ramsayhealth.co.uk","http://www.hortontreatmentcentre.co.uk","01295 7550001",239713.9531,445480.4375
18852,"NVC27","Hospital","Hospital","Independent Sector","Visible",TRUE,"Boston West Hospital","","Boston West Business Park","Sleaford Road","Boston","Lincolnshire","PE21 8EG",52.97591782,-0.033514805,"NVC","Ramsay Healthcare UK Operations Limited","01205 591860","boston.enquiries@ramsayhealth.co.uk","http://www.bostonwesthospital.co.uk","01205 591865",343906.8125,532025.125
18853,"NVC28","Hospital","Hospital","Independent Sector","Visible",TRUE,"Clifton Park Hospital","Bluebeck Drive","Shipton Road","","York","North Yorkshire","YO30 5RA",53.9778595,-1.113929391,"NVC","Ramsay Healthcare UK Operations Limited","01904 464550","clifton.enquiries@ramsayhealth.co.uk","http://www.cliftonparkhospital.co.uk","01904 464551",453917.9688,458106.0313
18854,"NVC29","Hospital","Hospital","Independent Sector","Visible",TRUE,"Cobalt Hospital","","The Silverlink North","","Newcastle Upon Tyne","","NE27 0BY",55.0240593,-1.510449052,"NVC","Ramsay Healthcare UK Operations Limited","0191 2703 250","cobalt.enquiries@ramsayhealth.co.uk","http://www.cobalthospital.co.uk","0191 2703 251",570064.25,431293.9688
18855,"NVC31","Hospital","Hospital","Independent Sector","Visible",TRUE,"Blakelands Hospital","Smeaton Close","Blakelands","","Milton Keynes","Buckinghamshire","MK14 5HR",52.07442474,-0.742682993,"NVC","Ramsay Healthcare UK Operations Limited","01908 334200","blakelands.enquiries@ramsayhealth.co.uk","http://www.blakelandshospital.co.uk","01908 334201",242576.5781,486162.3125
18857,"NVC33","Hospital","Hospital","Independent Sector","Visible",TRUE,"Gisburne Park NHS Treatment Centre","Gisburn Park Estate","Gisburn","","Clitheroe","Lancashire","BB7 4HX",53.94332886,-2.267543077,"NVC","Ramsay Healthcare UK Operations Limited","01200 445693","christinebailey@abbeyhospitals.com","http://www.ramsayhealth.co.uk/nhs","01200 445688",449746.1563,382440.5625
18861,"NVC37","Hospital","Hospital","Independent Sector","Visible",TRUE,"Bromley Private Patient Unit","The Princess Royal University","Farnborough Common","","Orpington","Kent","BR6 8ND",51.36624146,0.059160762,"NVC","Ramsay Healthcare UK Operations Limited","01689 863739","","","",165087.5313,543329.4375
18863,"NVC40","Hospital","Hospital","Independent Sector","Visible",TRUE,"Woodthorpe Hospital","Woodthorpe Hospital","748 Mansfield Road","Woodthorpe","Nottingham","Nottinghamshire","NG5 3FZ",52.99048233,-1.138613939,"NVC","Ramsay Healthcare UK Operations Limited","0115 920 9209","","http://www.woodthorpehospital.co.uk/","0115 967 3005",344064.7188,457814.5
18864,"NVC44","Hospital","Hospital","Independent Sector","Visible",TRUE,"The Westbourne Centre","","53 Church Road","Edgbaston","Birmingham","","B15 3SJ",52.46707916,-1.922581673,"NVC","Ramsay Healthcare UK Operations Limited","0121 456 0880","westbourne.admin@nhs.net","http://www.westbournecentre.com","0121 455 0313",285503.9688,405258.8125
18866,"NVG01","Hospital","Hospital","Independent Sector","Visible",TRUE,"Fairfield Independent Hospital","Crank Road","Crank","","St. Helens","Merseyside","WA11 7RS",53.48455429,-2.750059366,"NVG","Fairfield Hospital","01744 739311","enquiries@fairfield.org.uk","https://www.fairfield.org.uk/","01744 746444",398938.2813,350233.8125
18875,"NW605","Hospital","Hospital","Independent Sector","Visible",TRUE,"London Bridge Hospital","27 Tooley Street","","","London","","SE1 2PR",51.50632858,-0.0858787,"NW6","Hca International","0207 407 3100","info.lbh@hcahealthcare.co.uk","http://www.londonbridgehospital.com","0207 815 3604",180390.1094,532827.6875
18887,"NWF01","Hospital","Hospital","Independent Sector","Visible",TRUE,"Benenden Hospital","Goddards Green Road","Benenden","","Cranbrook","Kent","TN17 4AX",51.08664703,0.61611402,"NWF","Benenden Hospital","01580 240333","","https://www.benendenhospital.org.uk","",135240.0938,583198.625
18909,"NXM01","Hospital","Hospital","Independent Sector","Visible",TRUE,"The Horder Centre ","The Horder Centre","St. Johns Road","","Crowborough","East Sussex","TN6 1XP",51.06367493,0.142799318,"NXM","The Horder Centre","01892 665577","info@horder.co.uk","https://www.horderhealthcare.co.uk","01892 662142",131614.5313,550131.75
39920,"R1ARE","Hospital","Hospital","NHS Sector","Visible",TRUE,"Evesham Community Hospital","Evesham Community Hospital","Waterside","","Evesham","Worcestershire","WR11 1JT",52.08626175,-1.948670626,"R1A","Worcestershire Health and Care NHS Trust","01386 502388","","http://www.hacw.nhs.uk/our-services/community-hospitals/evesham-hospital","",243148.4844,403516.6875
39921,"R1ARG","Hospital","Hospital","NHS Sector","Visible",TRUE,"Malvern Community Hospital","Malvern Community Hospital","185 Worcester Road","","Malvern","Worcestershire","WR14 1EX",52.12385178,-2.322845221,"R1A","Worcestershire Health and Care NHS Trust","01684 612600","","http://www.hacw.nhs.uk/our-services/community-hospitals-welcome/malvern-community-hospital/","",247376.9688,377899.875
39923,"R1A04","Hospital","Hospital","NHS Sector","Visible",TRUE,"Princess of Wales Community Hospital - Worcestershire Health and Care NHS Trust","Princess of Wales Community Hospital","Stourbridge Road","","Bromsgrove","Worcestershire","B61 0BB",52.3441391,-2.055647612,"R1A","Worcestershire Health and Care NHS Trust","01527 488000","","https://www.hacw.nhs.uk/our-services/minor-injuries-units/","",271829.125,396209.5
39930,"R1D21","Hospital","Hospital","NHS Sector","Visible",TRUE,"Ludlow Community Hospital","","Gravel Hill","","Ludlow","Shropshire","SY8 1QX",52.37365723,-2.714434147,"R1D","Shropshire Community Health NHS Trust","01584 872201","ludlow.admin@shropcom.nhs.uk","http://www.shropscommunityhealth.nhs.uk","01584 871100",275350.8125,351368.125
39931,"R1D22","Hospital","Hospital","NHS Sector","Visible",TRUE,"Bridgnorth Community Hospital","","Northgate","","Bridgnorth","Shropshire","WV16 4EU",52.53790283,-2.421488047,"R1D","Shropshire Community Health NHS Trust","01746 762641","bridgnorth.reception@shropcom.nhs.uk","http://www.shropscommunityhealth.nhs.uk","01746 711031",293461.8125,371415.5313
39932,"R1D25","Hospital","Hospital","NHS Sector","Visible",TRUE,"Bishop's Castle Community Hospital","Union Street","","","Bishop's Castle","Shropshire","SY9 5AJ",52.4930954,-2.999591112,"R1D","Shropshire Community Health NHS Trust","01588 638220","bishopscastle.hospital@shropcom.nhs.uk","http://www.shropscommunityhealth.nhs.uk","01588 630900",288864.3125,332141.4688
39933,"R1D34","Hospital","Hospital","NHS Sector","Visible",TRUE,"Whitchurch Community Hospital","","Claypit Street","","Whitchurch","Shropshire","SY13 1NT",52.97274017,-2.679201841,"R1D","Shropshire Community Health NHS Trust","01948 666292","whitchurch.reception@shropcom.nhs.uk","http://www.shropscommunityhealth.nhs.uk","01948 660824",341960,354394.5
39954,"R1H11","Hospital","Hospital","NHS Sector","Visible",TRUE,"Gateway Surgical Centre","Glen Road","Plaistow","","London","","E13 8SL",51.52277756,0.034731604,"R1H","Barts Health NHS Trust","020 7055 5550","","http://www.newhamuniversityhospital.nhs.uk","0207 055 5649",182444.8594,541145.6875
39955,"R1H12","Hospital","Hospital","NHS Sector","Visible",TRUE,"The Royal London Hospital","","Whitechapel Road","Whitechapel","London","","E1 1FR",51.51869965,-0.060150061,"R1H","Barts Health NHS Trust","020 7377 7000","rlhpals@bartshealth.nhs.uk","http://www.bartshealth.nhs.uk/","",181812.6563,534576.5
39957,"R1H13","Hospital","Hospital","NHS Sector","Visible",TRUE,"Mile End Hospital","Bancroft Road","","","London","","E1 4DG",51.5250473,-0.04219196,"R1H","Barts Health NHS Trust","020 3416 5000","pals@bartshealth.nhs.uk","http://www.bartshealth.nhs.uk","",182551.6406,535803.3125
39964,"R1HKH","Hospital","Hospital","NHS Sector","Visible",TRUE,"Whipps Cross University Hospital","Whipps Cross Road","","","London","","E11 1NR",51.57883072,0.002652787,"R1H","Barts Health NHS Trust","020 3416 5000","wxpals@bartshealth.nhs.uk","http://www.bartshealth.nhs.uk/","",188615.9688,538749.9375
39966,"R1HM0","Hospital","Hospital","NHS Sector","Visible",TRUE,"St Bartholomew's Hospital","West Smithfield","","","London","","EC1A 7BE",51.51774979,-0.10038992,"R1H","Barts Health NHS Trust","020 3416 5000","sbhpals@bartshealth.nhs.uk","http://www.bartshealth.nhs.uk/","",181633.7969,531787.8125
39967,"R1HNH","Hospital","Hospital","NHS Sector","Visible",TRUE,"Newham General Hospital","Glen Road","Plaistow","","London","","E13 8SL",51.52277756,0.034731604,"R1H","Barts Health NHS Trust","020 7476 4000","nuhpals@bartshealth.nhs.uk","http://www.bartshealth.nhs.uk","020 7363 8181",182444.8594,541145.6875
39970,"RA201","Hospital","Hospital","NHS Sector","Visible",TRUE,"Royal Surrey County Hospital","Royal Surrey County Hospital","Egerton Road","","Guildford","Surrey","GU2 7XX",51.24101639,-0.60744828,"RA2","Royal Surrey County NHS Foundation Trust","01483 571122","rsc-tr.communications@nhs.net","http://www.royalsurrey.nhs.uk","01483 537747",150071.3438,497196.3125
39977,"RA301","Hospital","Hospital","NHS Sector","Visible",TRUE,"Weston General Hospital","","Grange Road","Uphill","Weston-Super-Mare","","BS23 4TQ",51.32234192,-2.971384764,"RA3","Weston Area Health NHS Trust","01934 636363","wnt-tr.pressoffice@nhs.net","http://www.waht.nhs.uk","01934 647029",158641.4844,332318.9063
39985,"RA430","Hospital","Hospital","NHS Sector","Visible",TRUE,"Yeovil District Hospital","Higher Kingston","","","Yeovil","Somerset","BA21 4AT",50.94484711,-2.634698391,"RA4","Yeovil District Hospital NHS Foundation Trust","01935 475122","communications@ydh.nhs.uk","http://www.yeovilhospital.nhs.uk/","01935 426850",116409.1563,355415.1563
39987,"RA701","Hospital","Hospital","NHS Sector","Visible",TRUE,"Bristol Royal Infirmary","Marlborough Street","","","Bristol","Avon","BS2 8HW",51.45918655,-2.596124649,"RA7","University Hospitals Bristol NHS Foundation Trust","0117 923 0000","","http://www.uhbristol.nhs.uk/your-hospitals/bristol-royal-infirmary.html","",173579.4219,358588.5625
39991,"RA707","Hospital","Hospital","NHS Sector","Visible",TRUE,"St Michael's Hospital","Southwell Street","","","Bristol","Avon","BS2 8EG",51.45913696,-2.599376917,"RA7","University Hospitals Bristol NHS Foundation Trust","0117 342 5325","","http://www.uhbristol.nhs.uk/your-hospitals/st-michaels-hospital.html","",173575.75,358362.5625
39992,"RA708","Hospital","Hospital","NHS Sector","Visible",TRUE,"Bristol Eye Hospital","Lower Maudlin Street","","","Bristol","Avon","BS1 2LX",51.45843887,-2.594531536,"RA7","University Hospitals Bristol NHS Foundation Trust","0117 342 4176","","http://www.uhbristol.nhs.uk/your-hospitals/bristol-eye-hospital.html","0117 342 4721",173495.3906,358698.5313
39993,"RA709","Hospital","Hospital","NHS Sector","Visible",TRUE,"University Of Bristol Dental Hospital","Lower Maudlin Street","","","Bristol","Avon","BS1 2LY",51.45861816,-2.595181704,"RA7","University Hospitals Bristol NHS Foundation Trust","0117 342 4422","","http://www.uhbristol.nhs.uk/your-hospitals/university-of-bristol-dental-hospital.html","",173515.6875,358653.5313
39995,"RA723","Hospital","Hospital","NHS Sector","Visible",TRUE,"Bristol Royal Hospital For Children","Upper Maudlin Street","","","Bristol","Avon","BS2 8BJ",51.45775223,-2.597314835,"RA7","University Hospitals Bristol NHS Foundation Trust"," 0117 342 8460","","http://www.uhbristol.nhs.uk/your-hospitals/bristol-royal-hospital-for-children.html","",173420.5938,358504.5625
40002,"RA773","Hospital","Hospital","NHS Sector","Visible",TRUE,"South Bristol Community Hospital","South Bristol NHS Community Hospital","Hengrove Promenade","","Bristol","","BS14 0DB",51.41099548,-2.584929228,"RA7","University Hospitals Bristol NHS Foundation Trust","0117 923 0000","","http://www.uhbristol.nhs.uk/patients-and-visitors/your-hospitals/south-bristol-community-hospital/","",168214.25,359323.4688
40006,"RA901","Hospital","Hospital","NHS Sector","Visible",TRUE,"Torbay Hospital","Lowes Bridge","","","Torquay","Devon","TQ2 7AA",50.48232269,-3.553790569,"RA9","Torbay and South Devon NHS Foundation Trust","01803 614567","chiefexecutive.sdhct@nhs.net","http://www.torbayandsouthdevon.nhs.uk/","01803 616334",65942.98438,289775.5
40049,"RA954","Hospital","Hospital","NHS Sector","Visible",TRUE,"Brixham Hospital - Torbay and South Devon NHS Foundation Trust","Greenswood Road","","","Brixham","Devon","TQ5 9HW",50.38945007,-3.513809919,"RA9","Torbay and South Devon NHS Foundation Trust","01803 881399","","https://www.torbayandsouthdevon.nhs.uk/visiting-us/ashburton-and-buckfastleigh-health-and-wellbeing-","",55559.1875,292401.2188
40051,"RA956","Hospital","Hospital","NHS Sector","Visible",TRUE,"Dawlish Hospital - Torbay and South Devon NHS Foundation Trust","Barton Terrace","","","Dawlish","Devon","EX7 9DH",50.58058929,-3.474774122,"RA9","Torbay and South Devon NHS Foundation Trust","01626 868 500","","https://www.torbayandsouthdevon.nhs.uk/visiting-us/dawlish-community-hospital/","",76753.78125,295597.75
40052,"RA957","Hospital","Hospital","NHS Sector","Visible",TRUE,"Newton Abbot Community Hospital - Torbay and South Devon NHS Foundation Trust","Jetty Marsh Road","","","Newton Abbot","Devon","TQ12 2TS",50.53936386,-3.612241745,"RA9","Torbay and South Devon NHS Foundation Trust","01626 324500","","https://www.torbayandsouthdevon.nhs.uk/visiting-us/newton-abbot-community-hospital/","",72373.01563,285767
40053,"RA958","Hospital","Hospital","NHS Sector","Visible",TRUE,"Paignton Health and Welllbeing Centre","Church Street","","","Paignton","Devon","TQ3 3AG",50.43714523,-3.568786621,"RA9","Torbay and South Devon NHS Foundation Trust","01803 547171","","https://www.torbayandsouthdevon.nhs.uk/visiting-us/paignton-health-and-wellbeing-centre/","",60942.70313,288605.6875
40054,"RA959","Hospital","Hospital","NHS Sector","Visible",TRUE,"Teignmouth Hospital","Mill Lane","","","Teignmouth","Devon","TQ14 9BQ",50.54837418,-3.511145592,"RA9","Torbay and South Devon NHS Foundation Trust","01626 772 161","","https://www.torbayandsouthdevon.nhs.uk/visiting-us/teignmouth-community-hospital/","",73224,292950.0938
40055,"RA979","Hospital","Hospital","NHS Sector","Visible",TRUE,"Totnes Hospital - Torbay and South Devon NHS Foundation Trust","Coronation Road","","","Totnes","Devon","TQ9 5GH",50.4327774,-3.68417573,"RA9","Torbay and South Devon NHS Foundation Trust","01803 862622","","https://www.torbayandsouthdevon.nhs.uk/visiting-us/totnes-community-hospital/","",60636.46094,280401.6875
40058,"RAE01","Hospital","Hospital","NHS Sector","Visible",TRUE,"Bradford Royal Infirmary","","Duckworth Lane","","Bradford","West Yorkshire","BD9 6RJ",53.8059845,-1.794681668,"RAE","Bradford Teaching Hospitals NHS Foundation Trust","01274 542200","","http://www.bradfordhospitals.nhs.uk","01274 364786",434453.25,413519.7188
40059,"RAE05","Hospital","Hospital","NHS Sector","Visible",TRUE,"St Lukes Hospital","","Little Horton Lane","","Bradford","West Yorkshire","BD5 0NA",53.78348541,-1.760977983,"RAE","Bradford Teaching Hospitals NHS Foundation Trust","01274 734744","","http://www.bradfordhospitals.nhs.uk","",431957.25,415747.4375
40060,"RAE2H","Hospital","Hospital","NHS Sector","Visible",TRUE,"Shipley Hospital","","98 Kirkgate","","Shipley","West Yorkshire","BD18 3LT",53.83343506,-1.786266565,"RAE","Bradford Teaching Hospitals NHS Foundation Trust","01274 773390","","","",437508.6875,414064.625
40061,"RAE4H","Hospital","Hospital","NHS Sector","Visible",TRUE,"Eccleshill Community Hospital","","450 Harrogate Road","Eccleshill","Bradford","West Yorkshire","BD10 0JE",53.82307816,-1.712111712,"RAE","Bradford Teaching Hospitals NHS Foundation Trust","01274 323200","","","",436373.75,418949.0313
40067,"RAJ01","Hospital","Hospital","NHS Sector","Visible",TRUE,"Southend Hospital","","Prittlewell Chase","","Westcliff-on-Sea","Essex","SS0 0RY",51.55383682,0.688631773,"RAJ","Southend University Hospital NHS Foundation Trust","01702 435555","","http://www.southend.nhs.uk","01702 385856",187362.25,586372
40069,"RAJ25","Hospital","Hospital","NHS Sector","Visible",TRUE,"Brentwood Community Hospital","Crescent Drive, Shenfield","","","Brentwood","Essex","CM15 8DR",51.62355042,0.316414982,"RAJ","Southend University Hospital NHS Foundation Trust","01277 695000","","","",194230.2813,560328.1875
40073,"RAL01","Hospital","Hospital","NHS Sector","Visible",TRUE,"Royal Free Hospital","","Pond Street","","London","","NW3 2QG",51.55322266,-0.165309235,"RAL","Royal Free London NHS Foundation Trust","020 7794 0500","rf.pals@nhs.net","http://www.royalfree.nhs.uk/","020 7830 2468",185463.1563,527185.375
40077,"RAL22","Hospital","Hospital","NHS Sector","Visible",TRUE,"Finchley Memorial Hospital","Granville Road","","","London","Greater London","N12 0JE",51.60545731,-0.176605821,"RAL","Royal Free London NHS Foundation Trust","020 8349 7500","pals@royalfree.nhs.uk","http://www.royalfree.nhs.uk/","020 8346 6043",191251.6719,526257.5
40083,"RALRA","Hospital","Hospital","NHS Sector","Visible",TRUE,"Edgware Community Hospital","Burnt Oak Broadway","","","Edgware","Middlesex","HA8 0AD",51.6064949,-0.271227777,"RAL","Royal Free London NHS Foundation Trust","020 8952 2381","","http://www.royalfree.nhs.uk","020 8732 6807",191207.8281,519703.3125
40087,"RAN01","Hospital","Hospital","NHS Sector","Visible",FALSE,"The Royal National Orthopaedic Hospital (Stanmore)","Brockley Hill","","","Stanmore","Middlesex","HA7 4LP",51.63256454,-0.31042096,"RAN","Royal National Orthopaedic Hospital NHS Trust","020 8954 2300","enquiries@rnoh.nhs.uk","http://www.rnoh.nhs.uk/index.htm","",194043.1719,516922.6563
40088,"RAN02","Hospital","Hospital","NHS Sector","Visible",FALSE,"Royal National Orthopaedic Hospital (Bolsover Street)","45-51 Bolsover Street","","","London","Greater London","W1W 5AQ",51.52331161,-0.143274531,"RAN","Royal National Orthopaedic Hospital NHS Trust","020 8954 2300","enquiries@rnoh.nhs.uk","http://www.rnoh.nhs.uk/","",182175.8594,528797.1875
40091,"RAPNM","Hospital","Hospital","NHS Sector","Visible",TRUE,"North Middlesex University Hospital","","Sterling Way","","London","","N18 1QX",51.61309433,-0.07373514,"RAP","North Middlesex University Hospital NHS Trust","020 8887 2000","","http://www.northmid.nhs.uk","",192283.5781,533357.625
40095,"RAS01","Hospital","Hospital","NHS Sector","Visible",TRUE,"Hillingdon Hospital","","Pield Heath Road","","Uxbridge","Middlesex","UB8 3NN",51.52607727,-0.461160362,"RAS","The Hillingdon Hospitals NHS Foundation Trust","01895 238282","info@thh.nhs.uk","https://www.thh.nhs.uk","01895 811687",181971.7344,506740.9688
40096,"RAS02","Hospital","Hospital","NHS Sector","Visible",TRUE,"Mount Vernon Hospital","Rickmansworth Road","Rickmansworth Road","","Northwood","Middlesex","HA6 2RN",51.61492538,-0.445808202,"RAS","The Hillingdon Hospitals NHS Foundation Trust","01923 826111","info@thh.nhs.uk","http://www.thh.nhs.uk","01923 844460",191873.7813,507595.8125
40109,"RAX01","Hospital","Hospital","NHS Sector","Visible",TRUE,"Kingston Hospital","Galsworthy Road","","","Kingston Upon Thames","Surrey","KT2 7QB",51.41482544,-0.282609493,"RAX","Kingston Hospital NHS Foundation Trust","020 8546 7711","khft.pals@nhs.net","http://www.kingstonhospital.nhs.uk/","020 85472182",169877.0156,519415.4375
40115,"RBA11","Hospital","Hospital","NHS Sector","Visible",TRUE,"Musgrove Park Hospital","","","Parkfield Drive","Taunton","Somerset","TA1 5DA",51.01157761,-3.121679544,"RBA","Taunton and Somerset NHS Foundation Trust","01823 333444","","http://www.musgroveparkhospital.nhs.uk","",124236.0625,321320.375
40130,"RBD01","Hospital","Hospital","NHS Sector","Visible",TRUE,"Dorset County Hospital","Williams Avenue","","","Dorchester","Dorset","DT1 2JY",50.71294403,-2.446922541,"RBD","Dorset County Hospital NHS Foundation Trust","01305 251150","headquarters@dchft.nhs.uk","http://www.dchft.nhs.uk","01305 254155",90527.11719,368449.5938
40154,"RBK02","Hospital","Hospital","NHS Sector","Visible",TRUE,"Manor Hospital","","Moat Road","","Walsall","","WS2 9PS",52.58233261,-1.998909116,"RBK","Walsall Healthcare NHS Trust","01922 721172","contactus@walsallhealthcare.nhs.uk","http://www.walsallhealthcare.nhs.uk","",298320,400073.9063
40162,"RBL02","Hospital","Hospital","NHS Sector","Visible",TRUE,"Victoria Central Hospital","Mill Lane","","","Wallasey","Merseyside","CH44 5UF",53.41566086,-3.045850515,"RBL","Wirral University Teaching Hospital NHS Foundation Trust","0151 678 5111","wirral.enq@whnt.nhs.uk","http://www.wuth.nhs.uk","",391522.1563,330496.3125
40163,"RBL14","Hospital","Hospital","NHS Sector","Visible",TRUE,"Arrowe Park Hospital","Arrowe Park Road","","Upton","Wirral","Merseyside","CH49 5PE",53.36962891,-3.096800804,"RBL","Wirral University Teaching Hospital NHS Foundation Trust","0151 678 5111","wih-tr.patientrelations@nhs.net","http://www.wuth.nhs.uk","0151 604 7148",386452.6875,327031.75
40164,"RBL20","Hospital","Hospital","NHS Sector","Visible",TRUE,"Clatterbridge Hospital","Clatterbridge Road","","Bebington","Wirral","Merseyside","CH63 4JY",53.33288956,-3.024122,"RBL","Wirral University Teaching Hospital NHS Foundation Trust","0151 334 4000","wih-tr.patientrelations@nhs.net","http://www.wuth.nhs.uk","",382294.2188,331808.1875
40168,"RBN01","Hospital","Hospital","NHS Sector","Visible",TRUE,"Whiston Hospital","Warrington Road","","","Prescot","Merseyside","L35 5DR",53.42047501,-2.784939051,"RBN","St Helens and Knowsley Hospitals NHS Trust","0151 426 1600","kim.hughes@sthk.nhs.uk","http://www.sthk.nhs.uk","",391835.1875,347841.125
40169,"RBN02","Hospital","Hospital","NHS Sector","Visible",TRUE,"St Helens Hospital","Marshalls Cross Road","","","St. Helens","Merseyside","WA9 3DA",53.43953323,-2.718886852,"RBN","St Helens and Knowsley Hospitals NHS Trust","0151 426 1600","kim.hughes@sthk.nhs.uk","http://www.sthk.nhs.uk","01744 646301",393908.9375,352251.5625
40188,"RBQHQ","Hospital","Hospital","NHS Sector","Visible",TRUE,"Liverpool Heart and Chest Hospital","","Thomas Drive","","Liverpool","","L14 3PE",53.4111557,-2.89797473,"RBQ","Liverpool Heart and Chest NHS Foundation Trust","0151 600 1616","","http://www.lhch.nhs.uk","0151 600 1862",390887.125,340317.0938
40195,"RBS25","Hospital","Hospital","NHS Sector","Visible",TRUE,"Alder Hey Children's NHS Foundation Trust","Alder Hey Children's Hospital","Eaton Road","","Liverpool","","L12 2AP",53.41930389,-2.897731543,"RBS","Alder Hey Children's NHS Foundation Trust","0151 228 4811","","http://www.alderhey.nhs.uk","0151 252 5846",391793.3125,340344.6563
40199,"RBT20","Hospital","Hospital","NHS Sector","Visible",TRUE,"Leighton Hospital","Leighton Hospital","Middlewich Road","","Crewe","Cheshire","CW1 4QJ",53.11769104,-2.475848436,"RBT","Mid Cheshire Hospitals NHS Foundation Trust","01270 255141","","http://www.mchft.nhs.uk","01270 587696",357973.25,368155.7188
40200,"RBT21","Hospital","Hospital","NHS Sector","Visible",TRUE,"Victoria Infirmary (Northwich)","Winnington Hill","Winnington Hill","","Northwich","Cheshire","CW8 1AW",53.26189423,-2.519784451,"RBT","Mid Cheshire Hospitals NHS Foundation Trust","01606 564000","","http://www.mcht.nhs.uk","01606 564020",374034.0313,365332
40204,"RBV01","Hospital","Hospital","NHS Sector","Visible",TRUE,"The Christie main site","550 Wilmslow Road","Withington","","Manchester","Greater Manchester","M20 4BX",53.42977142,-2.230110168,"RBV","The Christie NHS Foundation Trust","0161 446 3000","enquiries@christie.nhs.uk","http://www.christie.nhs.uk/","0161 446 3977",392607.0625,384712.5
40208,"RBZ12","Hospital","Hospital","NHS Sector","Visible",TRUE,"North Devon District Hospital","Raleigh Park","","","Barnstaple","Devon","EX31 4JB",51.09217453,-4.0504179,"RBZ","Northern Devon Healthcare NHS Trust","01271 322577","ndht.contactus@nhs.net","http://www.northdevonhealth.nhs.uk","01271 311541",134598.8438,256428.4688
40220,"RBZ91","Hospital","Hospital","NHS Sector","Visible",TRUE,"Ilfracombe Tyrrell Hospital","","St. Brannocks Park Road","","Ilfracombe","Devon","EX34 8JF",51.20452118,-4.124407291,"RBZ","Northern Devon Healthcare NHS Trust","01271 863 448","","http://www.northdevonhealth.nhs.uk/services/community/ilfracombe-tyrrell-hospital/","01271 867 813",147236.5469,251609.0156
40221,"RBZ92","Hospital","Hospital","NHS Sector","Visible",TRUE,"Holsworthy Hospital","Dobles Lane","","","Holsworthy","Devon","EX22 6JQ",50.81832886,-4.349647999,"RBZ","Northern Devon Healthcare NHS Trust","01409 253 424","","http://www.northdevonhealth.nhs.uk/services/community/holsworthy-hospital/","",104780.5781,234508.3125
40223,"RBZ95","Hospital","Hospital","NHS Sector","Visible",TRUE,"Bideford Hospital","","Abbotsham Road","","Bideford","Devon","EX39 3AG",51.01782608,-4.21274519,"RBZ","Northern Devon Healthcare NHS Trust","01271 322 577","","http://www.northdevonhealth.nhs.uk/services/community/bideford-hospital/","",126662.1094,244814.9531
40224,"RBZ98","Hospital","Hospital","NHS Sector","Visible",TRUE,"Torrington Hospital","Calf Street","","","Torrington","Devon","EX38 7BJ",50.9547348,-4.136956215,"RBZ","Northern Devon Healthcare NHS Trust","01805 622208","","http://www.northdevonhealth.nhs.uk/services/community/torrington/","",119490.8516,249926.3281
40225,"RBZ99","Hospital","Hospital","NHS Sector","Visible",TRUE,"South Molton Hospital","Widgery Drive","","","South Molton","Devon","EX36 4DP",51.01707077,-3.839224815,"RBZ","Northern Devon Healthcare NHS Trust","01769 572 164","","http://www.northdevonhealth.nhs.uk/services/community/south-molton-hospital/","",125857.8359,271006.6563
40227,"RC110","Hospital","Hospital","NHS Sector","Visible",TRUE,"Bedford Hospital South Wing","South Wing","Kempston Road","","Bedford","Bedfordshire","MK42 9DJ",52.12826538,-0.472480506,"RC1","Bedford Hospital NHS Trust","01234 355 122","communications@bedfordhospital.nhs.uk","http://www.bedfordhospital.nhs.uk/index.asp","01234 795 972",248918.9688,504551.9688
40228,"RC111","Hospital","Hospital","NHS Sector","Visible",TRUE,"Bedford Hospital North Wing","32-34 Kimbolton Road","","","Bedford","Bedfordshire","MK40 2NS",52.14118958,-0.46176514,"RC1","Bedford Hospital NHS Trust","01234 355 122","communications@bedfordhospital.nhs.uk","https://www.bedfordhospital.nhs.uk/our-departments/clinical-departments/physiotherapy/out-patient-ph","01234 795 972",250371.7031,505254.875
40233,"RC971","Hospital","Hospital","NHS Sector","Visible",TRUE,"Luton and Dunstable Hospital","","Lewsey Road","","Luton","Bedfordshire","LU4 0DZ",51.89414597,-0.474415451,"RC9","Luton and Dunstable University Hospital NHS Foundation Trust","01582 491166","pals@ldh.nhs.uk","https://www.ldh.nhs.uk/","",222881.1875,504966.0313
40235,"RCB05","Hospital","Hospital","NHS Sector","Visible",TRUE,"St Monicas Hospital","Long Street","Easingwold","","York","North Yorkshire","YO61 3JD",54.11840439,-1.189312696,"RCB","York Teaching Hospital NHS Foundation Trust","01347821214","","https://www.yorkhospitals.nhs.uk/our_hospitals/st_monicas_easingwold/","01347821046",469494.0938,452983.5938
40238,"RCB55","Hospital","Hospital","NHS Sector","Visible",TRUE,"The York Hospital","The York Hospital","Wigginton Road","","York","North Yorkshire","YO31 8HE",53.96895218,-1.084269643,"RCB","York Teaching Hospital NHS Foundation Trust","01904 631 313","","http://www.york.nhs.uk","",452951.7813,460063.7813
40242,"RCBL8","Hospital","Hospital","NHS Sector","Visible",TRUE,"Malton, Norton & District Hospital","","Middlecave Road","","Malton","North Yorkshire","YO17 7NG",54.13724518,-0.806531847,"RCB","York Teaching Hospital NHS Foundation Trust","01653 693041","","http://www.york.nhs.uk","01653 604521",471944.5938,477964.4375
40245,"RCBP9","Hospital","Hospital","NHS Sector","Visible",TRUE,"White Cross Rehabilitation Hospital","White Cross Road","Wilson Drive","Huntington Road","York","North Yorkshire","YO31 8JR",53.97165298,-1.076465845,"RCB","York Teaching Hospital NHS Foundation Trust","01904 724226","","http://www.york.nhs.uk","",453258.9063,460571.7188
40248,"RCBTV","Hospital","Hospital","NHS Sector","Visible",TRUE,"St Helens Rehabilitation Hospital","1a Nelsons Lane","","","York","North Yorkshire","YO24 1HD",53.94363022,-1.106458187,"RCB","York Teaching Hospital NHS Foundation Trust","01904 724626","","","",450116.25,458643.9688
40261,"RCD01","Hospital","Hospital","NHS Sector","Visible",TRUE,"Harrogate District Hospital","Lancaster Park Road","","","Harrogate","North Yorkshire","HG2 7SX",53.99380875,-1.517558336,"RCD","Harrogate and District NHS Foundation Trust","01423 885959","hello@hdft.nhs.uk","http://www.hdft.nhs.uk/","",455436.625,431625.3438
40262,"RCD02","Hospital","Hospital","NHS Sector","Visible",TRUE,"Ripon and District Community Hospital","Firby Lane","","","Ripon","North Yorkshire","HG4 2PR",54.13543701,-1.52717948,"RCD","Harrogate and District NHS Foundation Trust","01423 542900","hello@hdft.nhs.uk","http://www.hdft.nhs.uk","01765 606628",471188.625,430889.375
40267,"RCD6D","Hospital","Hospital","NHS Sector","Visible",TRUE,"The New Selby War Memorial Hospital - Harrogate and District NHS Foundation Trust","The New Selby War Memorial Hospital","Doncaster Road","","Selby","North Yorkshire","YO8 9BX",53.77748871,-1.078320146,"RCD","Harrogate and District NHS Foundation Trust","01904 724300","","http://www.hdft.nhs.uk","",431657.7188,460730.7813
40270,"RCF22","Hospital","Hospital","NHS Sector","Visible",TRUE,"Airedale General Hospital","Skipton Road","Steeton","","Keighley","West Yorkshire","BD20 6TD",53.89801788,-1.962679625,"RCF","Airedale NHS Foundation Trust","01535 652511","","http://www.airedale-trust.nhs.uk/","01535 655129",444672.875,402452.0625
40274,"RCF30","Hospital","Hospital","NHS Sector","Visible",TRUE,"Castleberg Hospital","Raines Road","Giggleswick","","Settle","North Yorkshire","BD24 0BN",54.06954956,-2.292192698,"RCF","Airedale NHS Foundation Trust","01729 823515","personnel.dept@anhst.nhs.uk","http://www.airedale-trust.nhs.uk/","01729 823082",463794.6563,380880.7188
40275,"RCF31","Hospital","Hospital","NHS Sector","Visible",TRUE,"Skipton General Hospital","Keighley Road","","","Skipton","North Yorkshire","BD23 2RJ",53.95569611,-2.018997669,"RCF","Airedale NHS Foundation Trust","01756 792233","personnel.dept@anhst.nhs.uk","http://www.airedale-trust.nhs.uk/","01756 700485",451089.0313,398753.5
40282,"RCUEF","Hospital","Hospital","NHS Sector","Visible",FALSE,"Sheffield Children's Hospital","Western Bank","","","Sheffield","South Yorkshire","S10 2TH",53.38060379,-1.490613818,"RCU","Sheffield Children's NHS Foundation Trust","0114 2717000","sheffield.childrenshospital@sch.nhs.uk","http://www.sheffieldchildrens.nhs.uk/","0114 272 3418",387233.9063,433880.3125
40289,"RCX70","Hospital","Hospital","NHS Sector","Visible",TRUE,"The Queen Elizabeth Hospital","Gayton Road","","","King's Lynn","Norfolk","PE30 4ET",52.75660706,0.446693152,"RCX","The Queen Elizabeth Hospital, King's Lynn. NHS Foundation Trust","01553 613 613","","http://www.qehkl.nhs.uk","01553 613 700",320510.6563,565091.0625
40303,"RD129","Hospital","Hospital","NHS Sector","Visible",TRUE,"Paulton Hospital","Salisbury Road","Paulton","","Bristol","Avon","BS39 7SB",51.29867935,-2.493281364,"RD1","Royal United Hospitals Bath NHS Foundation Trust","01761 412315","","","",155677.8281,365612.75
40304,"RD130","Hospital","Hospital","NHS Sector","Visible",TRUE,"Royal United Hospitals, Bath","Combe Park","","","Bath","Avon","BA1 3NG",51.39167023,-2.39120388,"RD1","Royal United Hospitals Bath NHS Foundation Trust","01225 428331","webmaster@ruh.nhs.uk","http://www.ruh.nhs.uk/","",165975.5625,372783.8125
40308,"RD304","Hospital","Hospital","NHS Sector","Visible",TRUE,"Poole Hospital","Longfleet Road","","","Poole","Dorset","BH15 2JB",50.72199249,-1.973102927,"RD3","Poole Hospital NHS Foundation Trust","01202 665511","","http://www.poole.nhs.uk/","",91438.3125,401898.4375
40330,"RD816","Hospital","Hospital","NHS Sector","Visible",TRUE,"Milton Keynes Hospital","Standing Way","","","Milton Keynes","Buckinghamshire","MK6 5LD",52.02637482,-0.73576653,"RD8","Milton Keynes University Hospital NHS Foundation Trust","01908 660033","","http://www.mkuh.nhs.uk","01908 669348",237241.2969,486729.25
40334,"RDD02","Hospital","Hospital","NHS Sector","Visible",TRUE,"Basildon Hospital - Dermatology Canvey Island","Canvey Island Long Road Clinic","Long Road","","Canvey Island","Essex","SS8 0JA",51.52022171,0.591000795,"RDD","Basildon and Thurrock University Hospitals NHS Foundation Trust","","","","",183380.625,579737.8125
40335,"RDD03","Hospital","Hospital","NHS Sector","Visible",TRUE,"Basildon Hospital - Dermatology Benfleet","Tyrells Health Centre","Seamore Avenue","","Benfleet","Essex","SS7 4EX",51.57055283,0.553597927,"RDD","Basildon and Thurrock University Hospitals NHS Foundation Trust","","","","",188885.1875,576948.125
40337,"RDDH0","Hospital","Hospital","NHS Sector","Visible",TRUE,"Basildon University Hospital","Nethermayne","","","Basildon","Essex","SS16 5NL",51.55767441,0.450571179,"RDD","Basildon and Thurrock University Hospitals NHS Foundation Trust","01268 524900","pals@btuh.nhs.uk","http://www.basildonandthurrock.nhs.uk/","",187208.9844,569858.0625
40342,"RDEE4","Hospital","Hospital","NHS Sector","Visible",TRUE,"Colchester General Hospital","Turner Road","","","Colchester","Essex","CO4 5JL",51.91016388,0.899196804,"RDE","East Suffolk and North Essex NHS Foundation Trust","01206 747474","communications@colchesterhospital.nhs.uk","https://www.esneft.nhs.uk/","01206 742220",227534.6875,599390.1875
40343,"RDEEB","Hospital","Hospital","NHS Sector","Visible",TRUE,"Essex County Hospital","Lexden Road","","","Colchester","Essex","CO3 3NB",51.8870697,0.889149308,"RDE","East Suffolk and North Essex NHS Foundation Trust","01206 747474","info@colchesterhospital.nhs.uk","http://www.colchesterhospital.nhs.uk","01206 744654",224939.6406,598801.25
40344,"RDEEK","Hospital","Hospital","NHS Sector","Visible",TRUE,"Halstead Hospital","78 Hedingham Road","","","Halstead","Essex","CO9 2DL",51.94809341,0.637966037,"RDE","East Suffolk and North Essex NHS Foundation Trust","01787 291022","","http://www.midessex.nhs.uk/","",231068.1563,581274.4375
40354,"RDR2V","Hospital","Hospital","NHS Sector","Visible",TRUE,"Bognor Regis War Memorial Hospital","Bognor Regis War Memorial Hospital","Shripney Road","","Bognor Regis","","PO22 9PP",50.79336548,-0.675404251,"RDR","Sussex Community NHS Foundation Trust","01243 865418","","http://www.sussexcommunity.nhs.uk/services/locations/bognor_regis_hospital.htm","",100210.0781,493347.9688
40395,"RDU01","Hospital","Hospital","NHS Sector","Visible",TRUE,"Frimley Park Hospital","Portsmouth Road","","","Camberley","Surrey","GU16 7UJ",51.31966782,-0.742014408,"RDU","Frimley Health NHS Foundation Trust","01276 604604","","https://www.fhft.nhs.uk/","",158647.4688,487654.4688
40411,"RDY10","Hospital","Hospital","NHS Sector","Visible",TRUE,"St Ann's Hospital","","69 Haven Road","Canford Cliffs","Poole","Dorset","BH13 7LN",50.69874191,-1.9272542,"RDY","Dorset Healthcare University NHS Foundation Trust","01202 708881","","http://www.dorsethealthcare.nhs.uk","01202 701462",88855.28906,405137.0313
40413,"RDYFX","Hospital","Hospital","NHS Sector","Visible",TRUE,"Nightingale House/Court/Florence House","Alumhurst Road","49 Alumhurst Road","","Bournemouth","Dorset","BH4 8EW",50.71672821,-1.904407144,"RDY","Dorset Healthcare University NHS Foundation Trust","01202 584301","","http://www.dorsethealthcare.nhs.uk","01202 584311",90856.99219,406747.8125
40415,"RDY22","Hospital","Hospital","NHS Sector","Visible",TRUE,"Alderney Hospital","Ringwood Road","Parkstone","","Poole","Dorset","BH12 4NB",50.7497139,-1.940967441,"RDY","Dorset Healthcare University NHS Foundation Trust","01202 735537","","http://www.dorsethealthcare.nhs.uk","01202 730657",94521.94531,404164.125
40421,"RDY32","Hospital","Hospital","NHS Sector","Visible",TRUE,"Kimmeridge Court","","69 Haven Road","Canford Cliffs","Poole","","BH13 7LN",50.69874191,-1.9272542,"RDY","Dorset Healthcare University NHS Foundation Trust","01202 492147","","http://www.dorsethealthcare.nhs.uk","",88855.28906,405137.0313
40423,"RDY38","Hospital","Hospital","NHS Sector","Visible",TRUE,"Fairmile House","","Jumpers Road","","Christchurch","Dorset","BH23 2JT",50.74319458,-1.792006493,"RDY","Dorset Healthcare University NHS Foundation Trust","01202 858100","","http://www.dorsethealthcare.nhs.uk","01202 858111",93816.03125,414673.8125
40425,"RDYMR","Hospital","Hospital","NHS Sector","Visible",TRUE,"Pebble Lodge","49 Alumhurst Road","Westbourne","","Bournemouth","Dorset","BH4 8EW",50.71672821,-1.904407144,"RDY","Dorset Healthcare University NHS Foundation Trust","01202 545400","","http://www.wheresyourheadat.co.uk","",90856.99219,406747.8125
40434,"RDYCV","Hospital","Hospital","NHS Sector","Visible",TRUE,"Oakcroft","","42 Gravel Hill","","Wimborne","Dorset","BH21 1RR",50.78026581,-1.97830379,"RDY","Dorset Healthcare University NHS Foundation Trust","01202  848547","","http://www.wheresyourheadat.co.uk","01202 848547",97917.57031,401529.4375
40437,"RDYEF","Hospital","Hospital","NHS Sector","Visible",TRUE,"Weymouth Community Hospital","Weymouth Community Hospital","3 Melcombe Avenue","","Weymouth","Dorset","DT4 7TB",50.62104034,-2.450997829,"RDY","Dorset Healthcare University NHS Foundation Trust","01305 760022","","https://www.dorsethealthcare.nhs.uk/patients-and-visitors/our-services-hospitals/community-hospitals","",80310.35156,368099.6875
40438,"RDYEG","Hospital","Hospital","NHS Sector","Visible",TRUE,"Westhaven Hospital","","Radipole Lane","","Weymouth","Dorset","DT4 0QE",50.615242,-2.480030775,"RDY","Dorset Healthcare University NHS Foundation Trust","01305 786116","","http://www.dorsethealthcare.nhs.uk","",79678.55469,366041.9375
40439,"RDYEH","Hospital","Hospital","NHS Sector","Visible",TRUE,"Portland Hospital","","Castle Road","Castletown","Portland","Dorset","DT5 1AX",50.5658226,-2.444808483,"RDY","Dorset Healthcare University NHS Foundation Trust","01305 820341","","http://www.dorsethealthcare.nhs.uk","01305 823148",74168.28125,368500.6563
40440,"RDYEJ","Hospital","Hospital","NHS Sector","Visible",TRUE,"Bridport Community Hospital","","Hospital Lane","North Allington","Bridport","Dorset","DT6 5DR",50.74161148,-2.769914389,"RDY","Dorset Healthcare University NHS Foundation Trust","01308 422371","","http://www.dorsethealthcare.nhs.uk","01308 426239",93901.97656,345681.4375
40441,"RDYER","Hospital","Hospital","NHS Sector","Visible",TRUE,"Blandford Community Hospital","","Milldown Road","","Blandford Forum","Dorset","DT11 7DD",50.86307526,-2.167970181,"RDY","Dorset Healthcare University NHS Foundation Trust","01258 456541","","http://www.dorsethealthcare.nhs.uk","01258 450786",107138.4297,388180.0938
40442,"RDYEY","Hospital","Hospital","NHS Sector","Visible",TRUE,"Westminster Memorial Hospital","","Abbey Walk","","Shaftesbury","Dorset","SP7 8BD",51.00472641,-2.200136185,"RDY","Dorset Healthcare University NHS Foundation Trust","01747 851535","","http://www.dorsethealthcare.nhs.uk","",122894.6484,385959.3125
40443,"RDYFC","Hospital","Hospital","NHS Sector","Visible",TRUE,"Yeatman Hospital","","Hospital Lane","","Sherborne","Dorset","DT9 3JU",50.94966888,-2.519826412,"RDY","Dorset Healthcare University NHS Foundation Trust","01935 813991","","http://www.dorsethealthcare.nhs.uk","",116882.1719,363488.1563
40444,"RDYFD","Hospital","Hospital","NHS Sector","Visible",TRUE,"Wareham Community Hospital","","Streche Road","","Wareham","Dorset","BH20 4QQ",50.68698883,-2.116732836,"RDY","Dorset Healthcare University NHS Foundation Trust","01929 552433","","http://www.dorsethealthcare.nhs.uk","01929 550170",87552.46094,391754.7188
